Date,city,state,country,shape,duration (seconds),duration (hours/min),comments,date posted,latitude,longitude 
1/1/2000 00:01,new york city,ny,us,sphere,120,2 minutes,I was celebreating with my friends&#44 when I saw spheres flying around.  I was ontop of my friends building&#44  I can assure you that it wa,3/7/2000,40.7141667,-74.0063889
1/1/2000 00:03,los angeles,ca,us,unknown,120,2 minutes,High speed weird noise over Los Angeles midnight new years 2000.,3/6/2001,34.0522222,-118.2427778
1/1/2000 00:23,san diego,ca,us,light,15,15 sec,Instense Green light traveling from NW to SE.  Paused momentarily (3-5 sec) before turning in a Southerly direction.,1/7/2000,32.7152778,-117.1563889
1/1/2000 00:45,canouan (caranage bay resort) (grenadine islands),,,changing,60,1 minute,Witness and I both viewed an object which appeared very close then moved across the sky changing shape&#44 then moved off slowly out of si,4/1/2000,12.725493,-61.323937
1/1/2000 01:00,washington&#44 d.c.,dc,,cylinder,60,about 1 minute,Near end of 1AM fireworks while standing outside Metro station in DC observed at least 5 cylindrical things moving at high speed across,9/6/2002,38.907231,-77.036464
1/1/2000 01:00,healesville&#44 melbourne (australia),,,unknown,1200,20 minutes,Light darting around over resevoir,8/28/2003,-37.653829,145.517006
1/1/2000 02:13,laporte,tx,,other,10,10 sec,Spotted unusually shaped&#44 unlit object moving north.,2/16/2000,29.665784,-95.019373
1/1/2000 03:00,bellefontaine,oh,us,light,10,10 sec.,After we ( my girlfriend and I ) got done skiing at the Mad River Mt. walking back to my car&#44 I look up in the sky and see two red obje,1/7/2000,40.3611111,-83.7597222
1/1/2000 03:30,nellis afb (near),nv,,light,7200,2 hours,stars that seem to move in an unstar-like manner.....,2/18/2001,36.241416,-115.050807
1/1/2000 05:00,clovis,ca,us,light,60,1 min,It&#39s a plane&#44 it&#39s a star&#44 NO it&#39s a UFO&#33,2/24/2007,36.8252778,-119.7019444
1/1/2000 14:45,gurnee,il,us,light,60.3,1 min. 30 sec.,Driving to movies with my daughter and mother and just before arriving daughter noticed a light in the sky to the west...it wasn&#39t movi,1/7/2000,42.3702778,-87.9019444
1/1/2000 16:20,san francisco,ca,us,light,900,15 minutes,It&#39s a cold&#44 clear&#44 sunny&#44 windy day&#44 with large&#44 rapidly moving clouds. probably preceeding a storm front. Observed a bright&#44 starlike,1/7/2000,37.7750000,-122.4183333
1/1/2000 17:00,medford,or,us,formation,300,5 mins,the quick flash of an object that looked like a boomarang,8/5/2001,42.3266667,-122.8744444
1/1/2000 20:30,houston,tx,us,flash,5,5 seconds,Myself and a friend were driving east on Loop 610 South in Houston near I-45.  As we drove up the elevated roadway&#44 our eyes were natur,1/7/2000,29.7630556,-95.3630556
1/1/2000 21:00,patoka,il,us,triangle,300,5 minutes,Triangular shaped object flying very low to the ground over my parents yard in rural Illinois.,6/12/2008,38.7552778,-89.0952778
1/1/2000 21:35,houston (nw ),tx,us,sphere,10,10 sec,Bright green sphere hovering then accellerating exponentially.,1/22/2000,29.7630556,-95.3630556
1/1/2000 22:00,evansville,in,us,cigar,2,2 seconds,Long black cigar-shaped craft flew over at low altitude and was extremely quick despite no engine noise (only wind),2/24/2001,37.9747222,-87.5558333
1/1/2000 23:00,erath,la,us,egg,120,2:00,Yellow egg shape craft displays of technolegy,5/15/2006,29.9580556,-92.0358333
1/2/2000 00:00,jacksonville,fl,us,rectangle,7200,2hrs,A rectangle shape object like a cigar box (maybe three times the size) touched down in my back yard.  ((NUFORC Note:  Hoax??  PD)),1/10/2009,30.3319444,-81.6558333
1/2/2000 00:30,mesa,az,us,oval,300,5 min.,golden orb&#39s flying about.,1/10/2009,33.4222222,-111.8219444
1/2/2000 02:00,aegean sea (turkey/greece),,,unknown,1200,10-20 minutes,1/2/2000  Aegean Sea,6/18/2004,39.019184,25.268555
1/2/2000 19:00,tinaquillo (venezuela),,,oval,15,15 seconds,I saw three silver colored lights moving all in the same direction without any sound being heard.,1/3/2001,9.916667,-68.3
1/2/2000 19:30,vancouver (canada),bc,ca,light,3,2-3 secs,Point of light moving quickly,12/2/2000,49.25,-123.133333
1/2/2000 19:33,murrieta,ca,us,fireball,3,3 seconds,From intersection of Las Alamos and Hancock&#44 looking east I witnessed a single whitish object break into 3 or 4 pieces across the sky,1/22/2000,33.5538889,-117.2130556
1/2/2000 19:34,kennewick,wa,us,light,10,5-10 seconds,Northern angle of sight 30-45 degree angle from ground Bright light came down zig zaged then straight down and fizzeled out.  Saw same,1/7/2000,46.2113889,-119.1361111
1/2/2000 20:00,oroville,ca,us,light,600,10+minutes,These lights(egg shape)put on a dazzling show they would go in a long oval circle probably a football field in length the egg shape lig,1/7/2000,39.5138889,-121.5552778
1/2/2000 21:00,studio city (san fernando valley),ca,us,rectangle,2,2 seconds,BRIGHT BLUE RECTANGLE FLYING LOW AND &quot;QUICK&quot; FROM NORTH TO SOUTH.,1/7/2000,34.1486111,-118.3955556
1/2/2000 21:30,temecula,ca,us,fireball,8,8 seconds,White light&#44 changing to green&#44 trailing flame&#44 disintegrated&#44 probably a meteorite.,1/7/2000,33.4936111,-117.1475
1/2/2000 21:30,redlands,ca,us,fireball,180,approx. 2-3 min.,Flaming Green Fireball reported over mountains in San Bernardino County Sunday Jan. 2&#44 2000.,1/7/2000,34.0555556,-117.1816667
1/2/2000 21:30,anaheim hills,ca,us,light,90,1:30,We witnessed 3 green and 1 pink light flying in formation,1/7/2000,33.8444444,-117.7763889
1/2/2000 21:33,glendale/eagle rock (los angeles),ca,,fireball,2,2 seconds,Apparent meteor apparent meteor,6/6/2000,34.132247,-118.211726
1/2/2000 21:35,la quinta,ca,us,formation,10,5-10 sec,4 lights in diamond shape formation,1/7/2000,33.6633333,-116.3091667
1/2/2000 21:35,sanger,ca,us,other,10,8 to 10 seconds,SAW OBJECT IN SKY  &#44 BLUE FLAME TAILING BEHIND &#44HUGE,1/7/2000,36.7080556,-119.555
1/2/2000 21:35,big bear lake,ca,us,other,7,6-7 sec.,I seen a object low on the eastern sky traveling to the south almost horizonal maybe 5 degrees down  the object was blueish front trali,1/7/2000,34.2438889,-116.9105556
1/2/2000 21:36,claremont,ca,us,,10,approx 10sec,pulsing colored lights streaking across the sky northwest to southeast,1/7/2000,34.0966667,-117.7188889
1/2/2000 21:37,vista,ca,us,disk,3,3 seconds,We saw a disk from the side so it appeared like a cigar. It was bright&#44 &quot;neon&quot; green with a bright orange&#44 firey trail running behind i,1/7/2000,33.2000000,-117.2416667
1/2/2000 21:40,san fernando valley,ca,,triangle,7,7 sec.,I was traveling East in the middle lane on the 118 freeway in the San Fernando Valley area of California. Immediately in ahead of me ap,1/7/2000,34.182578,-118.439676
1/2/2000 21:40,jurupa,ca,,light,10,10 seconds,White light moving towards earth got bigger&#44 faster&#44 and became bright pale blue&#44 split and burned up.,1/7/2000,34.048157,-117.448666
1/2/2000 21:50,sierra madre,ca,us,fireball,60,1 minute,While traveling east on Grandview St. and approaching Santa Anita Ave.  I saw..a green object...at first I thought it was a pyrotechnic,1/7/2000,34.1616667,-118.0519444
1/2/2000 22:00,tustin,ca,us,light,15,15 seconds,I saw a bright blue stream of light with a long trail behind it directly compass north of my home. It flew level accross the horizon fr,1/7/2000,33.7458333,-117.8252778
1/2/2000 22:40,south pasadena,ca,us,chevron,10,10 seconds,Boomerang with 6 lights passed directly over my head.,1/7/2000,34.1161111,-118.1494444
1/3/2000 07:30,el centro,ca,us,other,600,10 min max,To date I am still quite upset of what I (and later my mother) saw.  I was standing at a nearby corner&#44 looking up at a no-longer-in-us,12/20/2000,32.7919444,-115.5622222
1/3/2000 15:18,union city,tn,us,cigar,240,3-4 minutes,me and a friend were target shooting and saw saw this thing in the sky,1/22/2000,36.4241667,-89.0569444
1/3/2000 21:30,west manchester,oh,us,light,60,30 seconds to 1 minute,Flashing white light approx. tree top level.,1/7/2000,38.6880556,-83.6094444
1/3/2000 22:43,reno,nv,us,light,3,3 seconds,At 22:43 Jan 03&#44 2000 I observed in the night sky&#44 a bright white object traveling at a very high rate of speed from north to south. It,1/7/2000,39.5297222,-119.8127778
1/4/2000 03:15,union,mo,us,triangle,3600,1 hour,Trangluar Craft over Union&#44 MO  Jan. 5th 2000.  ((NUFORC Note:  Report from law enforcement officer.  PD)),10/30/2012,38.4500000,-91.0083333
1/4/2000 05:51,mono (town of) (canada),on,,cylinder,600,10 minutes,Blue glowing cylindrical object very low to the ground moving very slowly across the sky.,11/20/2001,44.016667,-80.066667
1/4/2000 19:00,duryea,pa,us,oval,10,7-10 secs.,The UFO was a perfect blue oval.,2/18/2001,41.3438889,-75.7388889
1/4/2000 20:30,scottsdale,az,us,light,10,10 seconds,Emerging&#44 pivoting array of lighted objects.,7/6/2010,33.5091667,-111.8983333
1/4/2000 21:30,coleman,tx,us,fireball,1800,30 minutes,Light in the sky - much larger than a star&#44 and looking like a flare gun&#39s flare&#44 but suspended in place.  Would flicker out and then r,1/22/2000,31.8272222,-99.4261111
1/4/2000 23:35,dupo,il,us,triangle,300,5 minutes,A delta shaped craft slowing moving within a few miles of downtown St. Louis&#44 Mo.  Within hours of a similar craft reported by police.,12/9/2000,38.5161111,-90.2102778
1/5/2000 02:00,florissant,mo,us,rectangle,10,3-10 seconds,Dark Rectangle sighting in heavly populated St. Louis county flying low and silent,11/9/2004,38.7891667,-90.3225
1/5/2000 02:00,florissant,mo,us,rectangle,5,3-5 seconds,two story rectangle flys low and silent over the city of Florissant,12/3/2004,38.7891667,-90.3225
1/5/2000 04:00,caseyville,il,us,other,3600,1:00-02:00-,high altitude glitering streak-too red orange 40&#39 high ball lookig like jap riseing son of ww2&#44tree high .,2/16/2000,38.6366667,-90.0255556
1/5/2000 04:15,summerfield&#44 (approx.1/2 mile west of),il,,changing,300,approx.4-5 minutes,After being dispatched to the north side of Lebanon&#44I saw two large&#44very bright white lights that changed into one&#44then when I got clos,1/7/2000,38.597271,-89.751762
1/5/2000 04:25,edwardsville,il,us,triangle,45,45seconds,I SEEN  LIGHTS IN THE SKY IN A TRIANGLE SHAPED PATERN THE OBJECT HOVERED LESS THAN 1 MINUTE OVER THE EAST SIDE OF EDWARDSVILLE GOING TO,2/16/2000,38.8113889,-89.9530556
1/5/2000 04:30,st. louis (mo)/columbia (il),mo,us,unknown,10,10 seconds,January 5th&#44 2000&#44 5 Dupo lights.,3/4/2008,38.6272222,-90.1977778
1/5/2000 05:00,milton,ma,us,triangle,90,1:30 m,I noticed a very bright light in the western sky at 5 AM while taking in my morning paper.  At first&#44 I thought it might be a star&#44 but,1/22/2000,42.2494444,-71.0666667
1/5/2000 09:50,exton,pa,us,cylinder,6,6 second,3 cylinder objects moving east to west&#44 9:50 am&#44 no sound&#44 white with two rings in black on each craft. No wings visible.,1/7/2000,40.0288889,-75.6211111
1/5/2000 19:55,hawkinsville (3 miles north&#44 100 miles south atlanta),ga,us,triangle,300,5 minutes,Object with 3 large spotlights making absolutely no noise as it flew over us.,1/7/2000,32.2836111,-83.4722222
1/5/2000 21:00,ramona (ne san diego),ca,us,light,120,2 minutes,Bright lights seen in  Ramona mountains&#44 California,2/18/2001,33.0416667,-116.8672222
1/5/2000 22:45,lakemoor,il,us,triangle,600,10  min,a brite lite in the east moveing southwest two rows of 3 lites under craft high rate of speed when overhead a flash of lite then craft,2/23/2000,42.3286111,-88.1988889
1/5/2000 23:59,spokane,wa,us,,60,1min.,i saw three beings about 4ft tall looking into a cars window. they spotted my dog an i walking toward them.they lined up&#44 one behind th,2/14/2010,47.6588889,-117.425
1/6/2000 05:45,rock spings&#44 2miles west of,wy,,unknown,120,aprox 2min,Driving truck along I-80 west when i noticed the truck that had just passed me swirve from the outside lain to the inside lain then bac,1/22/2000,33.064253,-96.752382
1/6/2000 10:25,york,pa,us,cigar,15,15 seconds,Daytime UFO siting in York&#44 Pennsylvania by two witnesses at place of employment.,1/22/2000,39.9625000,-76.7280556
1/6/2000 15:00,san francisco,ca,us,chevron,240,4 minutes,translucent&#44 silvery boomerang shape&#44 totally silent&#44 with short&#44 feathering discharge from the back edge,2/16/2000,37.7750000,-122.4183333
1/6/2000 16:00,riley county,ks,us,teardrop,5400,1.5hrs,Saw 2 craft white in color. 5 small jets were circling crafts. saw third craft half hour later. one jet following aircraft.,1/22/2000,39.2988889,-96.8305556
1/6/2000 22:00,austell,ga,us,fireball,6,6 sec,bright blue or white fireball flying at a high rate of speed. me and my boyfriend were heading to work when we saw the object in the sk,1/22/2000,33.8125000,-84.6344444
1/7/2000 00:10,edgewood,wa,us,sphere,600,10 minutes,two very bright amber colored orbs on a trajectory,2/18/2001,47.2502778,-122.2925
1/7/2000 05:15,rock island,il,us,circle,2,2 seconds,Green fireball in the ENE&#44 visible from about 40 degrees above the horizon to about 5 degrees&#44 seemed to fall straight toward the groun,2/18/2001,41.5094444,-90.5786111
1/7/2000 16:20,las vegas,nv,us,unknown,600,10 min.,hypersonic arcraft entering Nevada Test Site airspace,1/22/2000,36.1750000,-115.1363889
1/7/2000 19:00,citrus heights,ca,us,unknown,900,15 minutes,We saw 6 lights that seemed to hover in like a triangular formation. They seemed to be suspended in air. When they moved they all seeme,2/16/2000,38.7072222,-121.28
1/7/2000 21:35,three rivers,mi,us,fireball,10,00:10,The night of January 7th I spotted a very bright lime green firebal? streaking past our living room window. Irt was between 1st and 3rd,1/22/2000,41.9438889,-85.6325
1/7/2000 21:40,westwood (los angeles),ca,us,formation,40,30/40 seconds,Saw&#44 sitting in the garden&#44 4 star like dots&#44 similar to satellite but moving much faster&#44heading in V formation (no leader) East-West,3/16/2000,40.3061111,-121.0047222
1/7/2000 23:00,montgomery,al,us,triangle,300,4to5min,low slow bright light&#44 no sound,1/22/2000,32.3666667,-86.3
1/8/2000 07:30,knoxville,tn,us,cigar,900,15 min,2 Cigar shaped ships flying over Knoxville TN,5/24/2005,35.9605556,-83.9208333
1/8/2000 08:36,beech hill&#44 berkshire (uk/england),,,sphere,60,1 minute,Metallic sphere spotted in the sky&#44 object was reflective&#44 didn&#39t move&#44 after a minute it had vanished from sight...,6/4/2004,51.374313,-1.001312
1/8/2000 16:45,maitland,fl,us,formation,60,1:00,Formation of lights of varying degree.  Yellow to orange.  Moving slowly from west to east above all airplane traffic.  Have video from,1/22/2000,28.6275000,-81.3633333
1/8/2000 17:00,kent/warren (between; on rte 341),ct,,changing,240,3-4 minutes,While driving&#44 saw an unusually large bright triangular light in the distant sky; upon slowing&#44 it appeared above as a grouping of brig,1/22/2000,41.794367,-73.398311
1/8/2000 17:00,maitland,fl,us,light,2700,~ 45 mins,20 to 30 bright lights&#44 star like&#44 flying wnw (?) &#44 in formation&#44 one red&#44 the others were  white&#44 flying very fast&#44 but due to distanc,1/22/2000,28.6275000,-81.3633333
1/9/2000 00:20,las vegas blvd.,nv,,light,900,10-15 minutes,We saw two clusters of stars moving in a strange but uniformed direction.,1/22/2000,36.115131,-115.17275
1/9/2000 15:30,worcester (midlands) (uk/england),,gb,light,120,2mins,We had just turned off a slip road to get on to the motorway&#44 as I was heading back to University&#44 when I saw a light in the sky which,4/26/2000,52.166667,-2.166667
1/9/2000 17:30,los angeles,ca,us,sphere,120,2 minutes,The object was was a cross between a sphere and a disk.  It was very bright.  It omitted a very bright orange like color&#44 that seemed a,1/22/2000,34.0522222,-118.2427778
1/9/2000 19:07,guyton,ga,us,circle,3,3 seconds,Glowing circle flying east->west twice the speed of a jet.,1/22/2000,32.3361111,-81.3916667
1/9/2000 21:50,grand junction,co,us,fireball,2,2 seconds,1 BLUE/GREEN FIREBALL WITH A TAIL FELL STRAITHT DOWN TO THE RIGHT A LITTLE BIT.  IT WAS IN THE DUE EAST SKY IN FORNT OF THE GRAND MESA(,1/22/2000,39.0638889,-108.55
1/9/2000 23:25,sanford,me,us,light,3,3 seconds,i saw a fast bright object streak towards the earth&#44 with no explosion or fire visible.,2/18/2001,43.4391667,-70.7747222
1/10/2000 09:15,brentwood,tn,us,disk,240,4 minutes,Saucer shaped craft&#44that faded in out of view 3 times.,1/22/2000,36.0330556,-86.7827778
1/10/2000 19:15,mannford,ok,us,oval,8,6 to 8 seconds,Two bright objects perpendicular to one another and appeared to be heading on a fast collision course&#44 when one passed over the other&#44,1/22/2000,36.1333333,-96.3541667
1/10/2000 20:30,sevierville,tn,us,oval,900,15 mins,i walked outside to get something from the car.an oval shape custer of lights flying really low was flying west&#44north-west very slowly.,1/22/2000,35.8680556,-83.5619444
1/10/2000 21:00,conroe,tx,us,light,1800,more than  30 min,three lights in triangl form moved in &quot; L &quot; shape patern.....seemed to be one object....,9/2/2005,30.3116667,-95.4558333
1/10/2000 21:30,san diego,ca,us,light,10,10 seconds,Green ball of light flying up from bushes.,4/26/2000,32.7152778,-117.1563889
1/10/2000 22:00,erie (area),pa,us,unknown,60,less than a minute,dark object with strobe/beacon.stationary over Interstate 90 near Erie&#44PA,12/7/2006,42.1291667,-80.0852778
1/11/2000 02:00,westchester,il,us,triangle,600,10 minutes,I observed a very bright white light in the sky&#44 approx. 3-4 miles away.  It didn&#39t appear to be moving.  As I drove towards it&#44 the li,1/22/2000,41.8505556,-87.8819444
1/11/2000 11:15,brownell,ks,us,,5,5 seconds,I saw 3 bright flashes&#44light up the sky. I looked up and saw large bright windows&#44 and red&#44one white&#44 and blue lights which appeared to,1/22/2000,38.6402778,-99.7458333
1/11/2000 22:10,denver,co,us,fireball,4,4 seconds,Bright aqua green flashing roundish ball with orange sparkles coming out the back in a triangular shape&#44 may have had a red dot near th,1/22/2000,39.7391667,-104.9841667
1/11/2000 22:40,san diego,ca,us,oval,120,1.5-2.0,Already left message on answering machine.  My son was out jogging about a block and a half from our home&#44and stopped in his tracks whe,3/16/2000,32.7152778,-117.1563889
1/12/2000 01:31,los angeles,ca,us,disk,90,1 min 30 sec,It was a metalic looking object with blue and yellow flashing lights.,12/2/2000,34.0522222,-118.2427778
1/12/2000 18:20,snohomish,wa,us,triangle,120,2 minutes,Triangle shaped object hovering above farmland,1/22/2000,47.9130556,-122.0969444
1/13/2000 03:00,jacksonville,fl,us,unknown,2,moments,THEY WOKE ME UP&#44 I am terrified and if the government IS involved I believe that reporting this puts my life in danger.,1/22/2000,30.3319444,-81.6558333
1/13/2000 06:30,pine mountain,ar,,light,120,2 min,went out to warm up truck at 06:30 and i saw a light to my south;i thought it was venus but it was to far south for that time was there,1/22/2000,36.410623,-92.662944
1/13/2000 15:45,phoenix,az,us,circle,5,5 seconds,Silver ball&#44 approx 500-1000 feet altitude&#44 .5 to 1 mile N. of Freeway 101 @ 59th ave,1/22/2000,33.4483333,-112.0733333
1/13/2000 22:30,louisville,ky,us,fireball,120,2 minutes,We saw an object that glowed blue/orange/yellow&#44 and flickered like a candle&#44 yet it hovered within a half-mile of us&#44 and disappeared,3/7/2000,38.2541667,-85.7594444
1/13/2000 23:30,brisbane (qld&#44 australia),,au,fireball,5,5 seconds,OK&#44 this&#44 I&#39m sure wasn&#39t a UFO - but I found a link&#44 and I thought I&#39d share it anyway... I had just got home and was locking my car d,1/11/2002,-27.47101,153.024292
1/13/2000 23:30,motherwell (near glasgow) (uk/scotland),,gb,sphere,120,2 minutes,While doing some amateur astronomy&#44 I observed a large pulsating orange sphere moving very slowly from north to south. The sphere was t,12/17/2011,55.783333,-4.0
1/14/2000 06:30,mt. vernon,wa,us,disk,15,15 seconds,strange red lighted craft&#44 wobbling right to left then shooting straight up,1/22/2000,48.4213889,-122.3327778
1/14/2000 09:23,york mills/leslie (over the intersections of) (canada),on,,cigar,300,5 miutes or so,Clear blue sky &#44temperature -12 C . After leaving our garbage route for morning break&#44I noticed a bright lightin the sky to the east. F,12/2/2000,43.756551,-79.360779
1/14/2000 12:25,houston,tx,us,disk,120,2 mins,Disk shaped object observed at close proximity by two adult females and one juvenile male.,1/22/2000,29.7630556,-95.3630556
1/14/2000 17:45,charlesbourg (xx&egrave;m rue ouest&#44  qu&eacute;bec),ca,,rectangle,10,10 seconds,J&#39ai observer 3 objets (2 en forme triangles)(1 en forme de point)direction du nord-ouest vers l&#39est.,8/5/2001,46.867,-71.267
1/14/2000 20:05,louisville,ky,us,light,3600,1 hour,Traveling southeast on Bardstown road&#44 light appeared to the Northeast&#44 the light had an absolute vertical shape with a glow in the upp,2/16/2000,38.2541667,-85.7594444
1/15/2000 02:45,monroe (fairfield county),ct,us,,10800,3 hours,My friend and I went out to a club&#44 stopped for McDonalds on the way home.  Arrived home around 2:45 AM friday night.  As we pulled in,1/22/2000,41.3325000,-73.2077778
1/15/2000 13:52,kelowna (canada),bc,ca,circle,30,30 seconds,We were returning home from the mall and my attention was drawn to a redish object moving at a very considerable speed in the clear ski,12/2/2000,49.9,-119.483333
1/15/2000 18:00,longview,tx,us,cigar,120,two min.,I was standing on my patio looking around my back yard&#44 I glanced up straight ahead. Not up to the sky.I saw two very large red lights,1/22/2000,32.5005556,-94.7402778
1/15/2000 18:00,st. louis,mo,us,unknown,420,5-7min,flashing hot pink lights&#44 no particular pattern&#44 shooting across the sky&#44 up and down&#44 side to side just above the interstate. glowing,2/27/2000,38.6272222,-90.1977778
1/15/2000 19:00,keystone heights,fl,us,circle,3600,1 hour,Video taped approx. 3 minutes of stationary round object that darted on video screen.  Numerous colours.,1/22/2000,29.7858333,-82.0316667
1/15/2000 19:10,skowhegan,me,us,oval,300,5 minutes,Large UFO.  Oval Shaped.  Brilliant white lights around it with intense red light on top.,1/22/2000,44.7650000,-69.7197222
1/15/2000 20:00,houston,tx,us,triangle,15,15 seconds,triangle object bearly moving&#44then almost disappears&#44then dozens of aircraft start appearing and circling sky,4/15/2000,29.7630556,-95.3630556
1/15/2000 20:00,lake charles,la,us,light,2400,40 minutes,There was a UFO in Lake Charles&#44 Louisiana in 2000.,1/10/2009,30.2263889,-93.2172222
1/15/2000 20:15,lake macquarie (nsw&#44 australia),,,circle,900,15 min,At the approx time of 8.15pm a bright circular red light was spotted north east of Lake Macquarie NSW Australia.,4/1/2000,-33.093373,151.588982
1/15/2000 21:00,karachi (pakistan),,,light,120,2 minutes,2 star like things travelling in a curve shape from west to north east&#44 at equal speed&#44 without blinking in the night for 2-3 minutes.,9/17/2000,24.861462,67.009939
1/15/2000 22:00,milton,wv,us,light,600,10 minutes,A huge&#44  bright &#44 glowing light was seen in the sky above the hills of our property&#44 making no sound whatsoever....,3/19/2002,38.4344444,-82.1325
1/15/2000 22:00,channelview,tx,us,unknown,3600,1 hour,I was arriving home from work on the night of 1/15.I happened to look up to see two two large chemtrails crossing each other.I knew tha,1/22/2000,29.7758333,-95.1144444
1/15/2000 22:30,west fargo,nd,us,sphere,900,15 minutes,Bright glowing red orb. Did not emit any smoke&#44 noise&#44 or apparent heat.  Moved at about 10 mph from northwest horizon to southeast hor,10/30/2006,46.8772222,-96.7894444
1/15/2000 23:00,kalamazoo,mi,us,circle,600,10 minutes,A spinning lighted low down circle UFO.,12/2/2000,42.2916667,-85.5872222
1/15/2000 23:45,houghton lake,mi,us,flash,1200,20 minutes,Rendezvous of 2 white lights&#44 followed by enormous&#44 pulsing light rings.,10/31/2003,44.3147222,-84.7647222
1/16/2000 01:30,christiana,tn,us,rectangle,300,5 min.,I witnessed a elongated&#44 triangular shaped object glide/float across a nearly full moon.,4/26/2000,35.7100000,-86.3994444
1/16/2000 13:10,tifton,ga,,disk,180,3 min.,In response to your request&#44 I filled in the date above. I do not know,1/22/2000,31.450463,-83.508497
1/16/2000 18:00,becker (approx. 5 miles w of&#44 on hwy 10 towards st. cloud),mn,us,triangle,10,10sec,Traveling east along Hwy 10 around dusk&#44 triangular craft spotted between Hwy and power plant.,2/16/2000,45.3933333,-93.8766667
1/16/2000 19:00,davis,ca,us,circle,60,~ 1 minute,Observed bright object (mag. ~ 1) moving NE to SE. Assumed that it was a satellite until I noticed 2 blinking lights.,1/22/2000,38.5450000,-121.7394444
1/16/2000 20:50,hagerstown (sww of&#44  on i81&#44 intersect.i70 &amp; i81),md,us,light,2,1-2 seconds,In west&#44 brilliant point of light(larger than star or planet) &amp; streak fell nearly vertical from sky.,1/22/2000,39.6416667,-77.7202778
1/16/2000 21:00,lyons,ga,us,light,10,less than 10 secs,Flash in the southern sky&#44 according to others this was similar to the night of the meteor just off the east coast&#44 except of course th,1/22/2000,32.2041667,-82.3219444
1/17/2000 04:30,columbia,ky,us,unknown,600,10 minutes,IT WAS AROUND 4:30 IN THE MORNING AND I WAS AWAKENED INSTANTLY. I IMMEDIATLY NOTICE AN EXTREMELY BRIGHT LIGHT COMING THROUGH MY WINDOW&#44,1/22/2000,37.1027778,-85.3063889
1/17/2000 18:05,philadelphia (south),pa,us,rectangle,6,6 sec,I was visiting my mother. It was bitterly cold (approx. 15 degrees Far) And very windy. At appox.6: 02 PM I went out back into her smal,1/22/2000,39.9522222,-75.1641667
1/17/2000 18:20,oroville,ca,us,cone,30,20-30 sec.,saw a bright orange light with a cone of yellow light trailing,1/22/2000,39.5138889,-121.5552778
1/17/2000 20:30,three forks,mt,us,cylinder,10,8 to 10 sec,WE WHERE DRIVING EAST ON HIGH 2 INTO 3FORKS MONTANA WHEN WE SAW AN OBJECT COME INTO SIGHT FROM THE N.W. IT WAS HEADING S.E. IT WAS A LO,1/22/2000,45.8925000,-111.5513889
1/17/2000 21:40,orland,ca,us,triangle,600,10 minutes,Small triangular object flying low to ground flashing green then gold light.,6/12/2007,39.7475000,-122.1952778
1/17/2000 22:10,pittsburgh,pa,us,light,300,5 minutes,At 10:15 PM a bright shining object was seen &#44low in the sky&#44hovering&#44going back and forth&#44and then slowly flying away.It was shining i,1/22/2000,40.4405556,-79.9961111
1/17/2000 23:59,columbia,ky,us,,120,2 minutes,I would like to respond to a sighting that was posted here in 2000 from someone in Columbia&#44 Kentucky.  I read the post and knew finall,10/15/2003,37.1027778,-85.3063889
1/18/2000 01:00,buttonwillow,ca,us,cylinder,20,20 seconds,Large glowing cylinder object don&#39t know what it was&#44 don&#39t wanna know,6/21/2000,35.4005556,-119.4686111
1/18/2000 01:15,blackwell (08 mi. north of),tx,us,light,30,30 sec.,Light&#44 like a star moving fast and staright.,12/23/2002,32.0866667,-100.3172222
1/18/2000 07:45,juneau,ak,us,,600,10 min,event reported to be a meteorite streaked through the skies at aprox o745 hrs Tues 18 Jan.  It was reported to have impacted in the mts,2/16/2000,58.3019444,-134.4197222
1/18/2000 18:15,crescent city,ca,us,fireball,300,5 min,Saw a bright light (looked like police chopper with spotlight).   watched a few sec&#44 noticed a blue tail of smoke???   Saw light beam g,1/22/2000,41.7561111,-124.2005556
1/18/2000 18:15,dayton township,nv,,oval,30,:30,A bright light shone straight out of an object which appeared to be oval and surrounded by a smoke or fog like cloud. The light cut thr,1/22/2000,38.80261,-116.419389
1/18/2000 18:20,sixes/port orford (between),or,,light,600,6-10 min.,A brilliantly lit ball with a beam or shaft of light either coming down from it or pointing up to it on a 45 degree angle. It (the ball,1/22/2000,42.803455,-124.313501
1/18/2000 18:25,los gatos,ca,us,other,900,15 minutes,A vibrant white cone of light that faded leaving a glowing blue phenomenon which persisted for many minutes and witnessed by three.,1/22/2000,37.2266667,-121.9736111
1/18/2000 18:30,ely,nv,us,sphere,120,2 minutes,Me and my mom were driving along the road and as soon as we were passing the KOA campground in the corner of my eye I saw a rounded obj,1/22/2000,39.2475000,-114.8877778
1/18/2000 18:30,pleasanton (35miles due east of sfo),ca,us,light,330,30sec &amp; 5min,Saw a Very Bright Light Moving slowly/silently for 30secs. it had a very large fan-like projection of light behind it. when it disappea,1/22/2000,37.6625000,-121.8736111
1/18/2000 18:30,van nuys,ca,us,light,60,1 minute,A light appeared in the sky over Van Nuys Golf Course&#44 and then disappeared.,1/22/2000,34.1866667,-118.4480556
1/18/2000 18:39,los angeles,ca,us,,10,10 seconds,Bright white light appeared over the city&#44 slowed&#44 and disappeared. From - Wed Jan 19 10:09:11 2000 Received: from www.nwlink.com (www.,1/22/2000,34.0522222,-118.2427778
1/18/2000 19:45,wilsonville,or,us,unknown,60,1 minute,Pulsating (like a strobe light) object in the sky&#44 traveling south to north&#44 then turning east.,1/22/2000,45.3000000,-122.7725
1/19/2000 03:19,lake worth,fl,us,egg,60,about a minute,While walking to the corner store this morning&#44 I saw a large object travelling north&#44 actually bow-tie shaped&#44 flitting along the sky,1/22/2000,26.6155556,-80.0572222
1/19/2000 18:10,alvin,tx,us,unknown,2,2 sec,A SINGLE STREAK OF BLUE/WHITISH GLOW MOVED ACROSS THE SKY,1/22/2000,29.4236111,-95.2438889
1/19/2000 22:30,potters bar (uk/england),,gb,formation,600,10 minutes,7 objects bright&#44 glowing in diamond formation. came very close then rapidly flew away changing speed and direction at incredible rates,1/22/2000,51.683333,-0.166667
1/20/2000 10:39,cairo,wv,us,circle,20,15 to 20 seconds,Rotating in circles and then disappeared after about 15 seconds.,1/22/2000,39.2086111,-81.1575
1/20/2000 13:30,salt lake city,ut,us,disk,600,10 minutes,Saucer&#44 15&#39 diameter&#44 nw direction&#44 no sound,1/22/2000,40.7608333,-111.8902778
1/20/2000 17:07,bryant,wi,us,circle,4,4 seconds,I&#39m in Northern Wisconsin&#44 object was seen in southern horizon going from east to west - 4 seconds from horizon to horizon&#44 probably me,1/22/2000,45.2080556,-89.0238889
1/20/2000 18:00,wilmington,ca,us,light,5,1/2 hour,I saw three lights come together and then split apart continously for 30 min. over S Los Angeles.  ((NUFORC Note:  Ad&#39 lights??  PD)),1/22/2000,33.7800000,-118.2616667
1/20/2000 18:00,columbus,oh,us,fireball,5,5 sec.,Yesterday&#44 1/20/00 at exactly 6:00p.m.&#44 I observed a &quot;green meteor&quot;? falling from north to south in Columbus&#44 Ohio.  My wife and son an,1/22/2000,39.9611111,-82.9988889
1/20/2000 21:30,bradenton,fl,us,fireball,60,app. 1 min.,Waiting for the lunar eclipse at Bishop planetarium&#44I noticed it in the sky due east and didn`&#39t realize it wasn&#39t a plane at first.,2/23/2000,27.4986111,-82.575
1/20/2000 21:35,bradenton,fl,us,fireball,120,2min,Bishop planetarium &#44luner eclipse&#44 telscopes were set on saturn&#44jupiter and the moon.We were sitting under a covered set of tables when,2/23/2000,27.4986111,-82.575
1/20/2000 22:00,columbus,ne,us,triangle,480,5-8min,Triangular craft seen by three females.,3/19/2002,41.4297222,-97.3680556
1/20/2000 22:00,vancouver (canada),bc,ca,chevron,30,00:00.30,Black Chevron object&#44 camoflauged with the dark sky. no lights&#44 no sound.,1/29/2002,49.25,-123.133333
1/20/2000 22:10,houston (clear lake area),tx,us,triangle,15,within a 15 sec. span,Observed two triangular (side by side) profiled object during eclipse..,2/16/2000,29.7630556,-95.3630556
1/20/2000 22:14,houston,tx,us,diamond,45,45 seconds,two diamond shaped &#39craft&#39 during eclipse,1/22/2000,29.7630556,-95.3630556
1/20/2000 22:22,memphis,tn,us,other,6,approx 6 seconds,An arc-shaped object&#44 moving at possibly a high rate of speed&#44 was seen moving from overhead to south. The object was almost invisible&#44,1/22/2000,35.1494444,-90.0488889
1/20/2000 22:30,hialeah (561 w. 4th ave.),fl,us,other,10,10 seconds,I saw a shooting star coming into earth and the light went off and this big object with two wings(not feathers) appear and all of the s,2/16/2000,25.8572222,-80.2783333
1/20/2000 22:50,puntarenas (costa rica),,,triangle,5,5 seconds,Black Triangular Craft moving north to south at time of lunar eclipse. Well camoflaged&#44 it appeared as if a piece of the sky had moved.,2/16/2000,9.977844,-84.829421
1/20/2000 23:10,belcamp,md,us,triangle,120,2 min,While viewing the lunar eclipse I saw a triangle of 11 small dim lights pass between me and the moon. The formation traveled to the sou,1/22/2000,39.4688889,-76.2336111
1/20/2000 23:15,pembroke pines,fl,us,light,45,45 sec.,At approximately 11:15 PM on January 20&#44 2000 my wife and I went out by our pool to watch the Lunar Eclipse.  Just before returning int,1/22/2000,26.0027778,-80.2241667
1/21/2000 00:12,valencia&#44 carabobo (venezuela),,,triangle,15,15 seconds,Despu&eacute;s de observar la eclipse Lunar del 21 de Enero de 2000&#44 vi en el cielo una formaci&oacute;n en V de 5 objetos color naranja. No se sinti,2/16/2000,10.157931,-67.99721
1/21/2000 17:15,whitefish,mt,us,fireball,600,10 min.,we witnessed a large ball of light decending from the sky. it had 2 streamers of bright fire trailing from the back. judging from the s,9/6/2002,48.4111111,-114.3366667
1/21/2000 18:30,highland park,il,us,unknown,60,+/- 1 minute,I was driving with my daughter.  I saw this fast moving object come from the behind the moon.  I told my daughter&#44(she&#39s 16)&#44 to look a,2/16/2000,42.1816667,-87.8002778
1/22/2000 11:30,tacna,az,us,triangle,180,3 minutes,Iseen three objects coming out of the south at 11;30 a.m. about the 22 of jan. 2000one of the craft flying in the center was about 100,4/1/2001,32.6975000,-113.9527778
1/22/2000 17:30,aurangabad.maharashtra (india),,,fireball,60,1 minute,NUFORC Note:  Witness reports fireball.  PD)),12/2/2000,19.876165,75.343314
1/22/2000 19:00,sacramento area (citrus heights),ca,,triangle,600,10min,1900hrs 3 orange/yellow lights appeared in the south east sky. Moving very slowly in the north west direction.,2/16/2000,38.647351,-121.351147
1/22/2000 23:00,san diego,ca,us,changing,7200,a few hours,As I was walking at the La Jolla cove&#44 I saw 3 star like objects at the horizon. They stayed there for about 10 minutes and then change,2/16/2000,32.7152778,-117.1563889
1/23/2000 11:05,petaluma,ca,us,disk,180,2 to 3 min.,Object moved from South to North&#44 at the speed of a plane.Appeared metallic. Saucer shaped&#44 but about as tall as wide.About pea-sized&#44,2/16/2000,38.2325000,-122.6355556
1/23/2000 15:00,rio rancho,nm,us,sphere,10800,3 hrs,Black object hanging in the sky possible cause of geese flock disappearance,8/16/2002,35.2333333,-106.6638889
1/23/2000 18:30,covina,ca,us,oval,180,about 2 or 3 mins,a lighted object moving across the sky... west to east... no sound&#44 in a cloudy sky...,2/16/2000,34.0900000,-117.8894444
1/23/2000 18:50,fontana,ca,us,disk,300,5 minutes,The UFO was completely illuminated by light and spunned extremely fast.  It&#39s shape was of a saucer and it hoovered slowly over the cit,2/16/2000,34.0922222,-117.4341667
1/24/2000 01:10,hull (the quadrant estate) (uk/england),,gb,changing,1200,10-20 mins,It looked like a star but circular shaped&#44 with blue paricles dropping from it&#44 then appeared to split in two and appeared white&#44 them,2/16/2000,53.716667,-0.333333
1/24/2000 13:00,mammoth lakes,ca,us,disk,60,1 minute,Two white craft&#44 flying in close formation.,3/21/2003,37.6486111,-118.9711111
1/25/2000 21:30,gold bar,wa,us,cigar,14,14 secs.,((deleted)) saw it before I did. It was a cigar-shaped thing. It was moving at a high rate of speed through the mtns. It glowed on one,2/16/2000,47.8569444,-121.6958333
1/25/2000 21:40,montlu&ccedil;on (france),,,,360,6 minit,SORRY FOR MY ENGLISH &#33&#33&#33 a yellow light on north/ouest montlu&ccedil;on .the light  was different than stars after five minits of no mouvement,2/16/2000,46.341547,2.601991
1/26/2000 06:45,ottumwa,ia,us,disk,600,10 minutes,Daylight sighting of domed disk near Ottumwa,8/5/2000,41.0041667,-92.3736111
1/26/2000 19:10,westminster,ca,us,light,240,4 minutes,I observed an unusually bright pure red light by itself&#44 it was the size of a pea held at arms length. It was coming from the South Wes,2/16/2000,33.7591667,-118.0058333
1/26/2000 19:37,seattle,wa,us,fireball,15,8to15sec.,Driving to a meeting in Seattle Capitol Hill area&#44 s. bound I-5 exited at Roanoke&#44 I was stopped at light to turn&#44 very clear winter ni,3/16/2000,47.6063889,-122.3308333
1/26/2000 21:00,parrish,fl,us,triangle,300,05 minutes,Two witnesses saw six lights like domino dots for the six domino&#44 but it was in a triangular or boomerang shape above the tree line&#44per,3/7/2000,27.5872222,-82.4252778
1/26/2000 21:11,omaha,ne,us,teardrop,15,10-15 seconds,Saw a black object move from eastern horizon to the western horizon that seemed to be decending at approx. a 30 degree angle,2/16/2000,41.2586111,-95.9375
1/26/2000 21:45,sante fe (near),nm,,other,180,3 min,3-5 round yellow lights appearing on parallel course at tip of wing of commercial aircraft then changing position to parallel back of w,2/16/2000,35.686975,-105.937799
1/27/2000 12:00,san gabriel valley,ca,,triangle,1800,30 min.,Craft was more or less in a holding pattern where it&#39s path was none directional... and apered to rotate 180 degrees on its axis..or to,2/16/2000,34.033344,-118.037011
1/27/2000 18:30,covina,ca,us,light,10,10 sec,WHILE LOOKING UP&#44 I SAW A LIGHT TRAVELLING FROM NORTH TO EAST.  IT LOOKED LIKE A STAR&#44 IT DIDN&#39T HAVE BLINKING LIGHTS LIKE AN AIRPLANE.,2/16/2000,34.0900000,-117.8894444
1/27/2000 19:40,leavenworth,wa,us,fireball,600,10 minutes,It was an orange ball&#44 circle type&#44 it glowed somewhat. It seemed to be a circle with something above it that seemed to be either carry,2/16/2000,47.5963889,-120.6602778
1/27/2000 20:00,monticello,in,us,light,1200,15-20 minutes,Golden/Amber bright star like light glows for 3-5 seconds and fades. Reappears 10-15 seconds in another location.  3 jets scramble the,2/16/2000,40.7452778,-86.7647222
1/28/2000 00:00,damascus (boring),or,us,fireball,2,2 seconds,Massive green appearing fireball&#44 appeared to have slammed into the earth&#44 somewhere South of Damascus (Boring) Oregon.,2/16/2000,45.4177778,-122.4577778
1/28/2000 07:30,beaverton,or,us,cylinder,1200,20 minutes,AS we left our home I spotted two large bright shapes in the southwestern sky. With outstretched arm the two shapes were lentil size. B,2/16/2000,45.4872222,-122.8025
1/28/2000 17:30,east rutherford/secaucus,nj,,triangle,180,2-3mins.,driving west on n.j. turnpike extenstion on 1/28/00 @ 5:30 &#39ish pm. my passenger says look at that&#33 what is it?&#33 And as we looked north,11/20/2002,40.795273,-74.081736
1/28/2000 19:15,rohnert park,ca,us,light,15,apx 15 sec,Brite white light with a downward tail,2/16/2000,38.3397222,-122.7
1/28/2000 20:40,prescott valley,az,us,circle,360,5-6 min.,Large bright yellow-orange object moving NNW to SSE; turned South towards Phoenix,2/16/2000,34.6100000,-112.315
1/28/2000 20:58,laguna niguel,ca,us,sphere,30,about 30 seconds,I was lying down&#44 and I look in the sky. I see a sphere and I thought it was a plane. I look closely&#44 but I see it is not like a plane,2/16/2000,33.5225000,-117.7066667
1/29/2000 01:30,prince albert (canada),sa,ca,diamond,7200,2 hours,Seemed to stay in one area for approx. 2 hours&#44 is still there at 03:17 and during the event the object seemed to change color and inte,12/2/2000,53.2,-105.75
1/29/2000 02:00,prince albert (canada),sa,ca,triangle,3600,1 hour,A triangle-shaped craft or object&#44 with red&#44green&#44and yellow lights flashing in seqences. Seemed to be hovering in the southern sky at,12/2/2000,53.2,-105.75
1/29/2000 07:30,northbend (5 mile west of),wa,,cross,120,1-2 min.,spotted object from I-5&#44 5 miles west of Northbend. object hovering over top of mountain. lights visible change from white to red.,2/16/2000,47.495658,-121.786777
1/29/2000 10:00,seatac,wa,us,fireball,300,5 minutes,Fireball streaking in southeast direction&#44 looked at first like a gigantic meteorite burning up in the atmosphere.,5/11/2000,47.4538889,-122.3205556
1/29/2000 13:00,beaverton,or,us,cylinder,900,15min,Traveling from Portland to Beaverton Saturday afternoon our family again spotted a laeger white object in the southwestern sky.  It lef,2/16/2000,45.4872222,-122.8025
1/30/2000 10:30,new wilmington,pa,us,circle,120,2 minutes,An airplane like object was witneesed in the sky but the lights were positioned incorrectly.  Upon slowing down to get a better look th,2/16/2000,41.1222222,-80.3330556
1/30/2000 23:15,san francisco (farallon island),ca,us,triangle,15,:15,Encountered large triangular object while night fishing off Farlon Island and fired 100 rounds of 22 ammo at it.,2/16/2000,37.7750000,-122.4183333
1/31/2000 21:00,cape canaveral,fl,us,light,60,1 minute,Glowing green light came up right side of moving ship&#44 stayed even then made sharp right turn 90 degrees&#44 took off.,10/8/2007,28.4055556,-80.605
1/31/2000 22:21,escondido,ca,us,circle,480,8 mins,approx 22:21 saw a bright light hovering just east of my front driveway. No noise. The brightness would intensify then subsided then in,2/16/2000,33.1191667,-117.0855556
2/1/2000 02:30,lynn,al,us,triangle,900,15 minutes,In February of 2000&#44 I was on routine patrol at approx. 0230 hrs CST.  As I drove behind the local High School&#44 I observed three lights,12/12/2011,34.0469444,-87.5497222
2/1/2000 09:00,cottage grove,or,us,triangle,60,1 min,black silent triangle flighs over dorena lake ruinning my fishing trip,6/12/2008,43.7977778,-123.0583333
2/1/2000 10:00,houston,tx,us,chevron,30,30 seconds,2 boomarangs high and fast over houston on night of lunar full eclipse,4/1/2000,29.7630556,-95.3630556
2/1/2000 20:30,new york city (bronx),ny,us,other,900,15min,spaceship&#44like a football&#44flying low&#44over a park&#44 no sound&#44 detail of the ship was veary good.,5/15/2006,40.7141667,-74.0063889
2/1/2000 23:00,babbitt,mn,us,other,600,8-10 minutes,Opaque white beams of light that repeatedly  hit a lamp&#44 turning it on and off...,10/31/2003,47.7086111,-91.9444444
2/1/2000 23:00,paraparaumu,,,circle,600,10 minutes,A steady white light approaches from the north&#44 dances erratically overhead then fades and disappears,12/2/2000,-40.914234,175.00838
2/1/2000 23:30,flagstaff,az,us,unknown,4,4 sec,Huge cloaked UFO over Flagstaff,3/10/2011,35.1980556,-111.6505556
2/2/2000 00:00,silverlake,wa,,diamond,120,2 min,Four lights showing through overcast in a diamond shape patter.  Then a  a fifth light appears on right and drops in a curve toward gro,2/16/2000,46.295656,-122.783297
2/2/2000 03:00,area 51 and mercury,nv,,light,10800,3 hours,returning to Mercury and then on to Area 51 to watch the &quot;dancing stars&quot;,2/18/2001,36.223442,-115.117741
2/2/2000 16:00,denver,co,us,other,60,60 seconds,White object looked like upside down Y left strange trail no sound and seemed to come out of the mountains west of Denver,5/15/2006,39.7391667,-104.9841667
2/2/2000 17:00,glenwood landing,ny,us,changing,1200,20 minutes,I HAD SEEN AN AIRCRAFT ON THE HORIZON FIFST AS A CIGAR THEN A BALL,2/16/2000,40.8305556,-73.6391667
2/2/2000 18:00,mattawa,wa,us,other,300,5 minutes,Orange Jet?&#44 but thicker&#44 not streamlined. Really orange. Odd contrail&#44 like three going out like a fan.  Going West to East&#44 with low,3/7/2000,46.7380556,-119.9016667
2/2/2000 19:00,seattle (corner of mercer and queen anne avenues),wa,us,,30,30 seconds,I heard a loud aircraft sound.Looked up and saw two very large unidenified aircraft. flying very slow&#44 very low&#44and very close together,2/16/2000,47.6063889,-122.3308333
2/2/2000 19:33,bouse,az,us,,2`,each a few seconds,Driving through Plomosa Pass towards Bouse Looking NE towards Prescott about 60 degrees up from horizon myself&#44husband and daughter wit,2/16/2000,33.9325000,-114.005
2/2/2000 19:49,seattle,wa,us,other,180,3 min,Two Jumbo Jets flying low and slow.,2/16/2000,47.6063889,-122.3308333
2/2/2000 19:49,seattle,wa,us,other,120,aprox. 2 min,Watched two flying objects headed NW&#44 very low&#44 very slow&#44 at junction of Duamish River and West Seattle Bridge.,2/16/2000,47.6063889,-122.3308333
2/2/2000 20:00,seattle (ballard),wa,us,chevron,120,2 minutes,From south facing window&#44 witnessed two aircrafts heading north&#44  low and close together.  Each had two very bright headlights and they,2/16/2000,47.6063889,-122.3308333
2/2/2000 20:00,kent,wa,us,cigar,20,20 seconds,I saw two craft in the sky headed northwest&#44 on a precise landing path for Boeing Field in Seattle.  They reappeared ten minutes later,2/16/2000,47.3811111,-122.2336111
2/2/2000 21:30,bagdad,az,us,other,420,5-7 minutes,Out stargazing&#44 I noticed an unusually bright yellow light just above the eastern horizon It proceeded to climb accross the sky. As it,2/16/2000,34.5811111,-113.2038889
2/3/2000 07:00,castle rock,wa,us,light,600,10 min.,Shortly before dawn observed a white strobe light flying above tree line&#44 object moved and lights changed to red&#44 green and white&#44 hove,2/16/2000,46.2752778,-122.9063889
2/3/2000 18:32,summerville,sc,us,teardrop,300,5 minutes,While driving down the road we noticed a funny shaped light in the sky.  I first thought it was a plane&#44 but realized it was like no ot,2/16/2000,33.0183333,-80.1758333
2/3/2000 19:10,dillon,sc,us,triangle,120,2 minutes,Very bright light with flaring out particles. long trail behind it. no pulsation of lights&#44 just a bright steady white light&#44 as if a c,2/23/2000,34.4163889,-79.3713889
2/3/2000 19:45,crystal river,fl,us,light,600,10 min,Unusaual object moved across the sky at a rather low altitude&#44 twice dropping some kind of glowing embers from the bottom.,2/16/2000,28.9022222,-82.5927778
2/3/2000 20:00,temple city,ca,us,unknown,8,5-8seconds,observing sky&#44 northward&#44 slight overcast&#44usual to observe satelites. noticed a light as a lense&#44 brightening in intensity&#44 like a spot,2/16/2000,34.1072222,-118.0569444
2/4/2000 05:55,youngsville,nc,us,light,5,5 seconds,Object looked like star went across sky north to south to fast to be airplane. Object pulsed bright to dim.,2/16/2000,36.0247222,-78.4747222
2/4/2000 19:30,olympia,wa,us,light,90,1.5 minutes,light appeared far away in the sky&#44 moved at same speed for about 1 min. then disapeared.,2/16/2000,47.0380556,-122.8994444
2/4/2000 19:40,houston,tx,us,triangle,120,2 min.,Driving on freeway looked up and saw two steady white lights (like headlights) in the sky.  As we passed under the object a third light,2/16/2000,29.7630556,-95.3630556
2/4/2000 20:30,prescott,az,us,circle,120,2 min.,Bright yellow-orange circular objects flying in a &quot;V&quot; formation directly overhead heading NNE.,2/16/2000,34.5400000,-112.4677778
2/4/2000 21:30,prescott valley,az,us,circle,180,3 min.,Yellow-orange objects moving NNW and N &#39til they formed a perfect &quot;V&quot; formation on the horizon.,2/16/2000,34.6100000,-112.315
2/4/2000 21:30,prescott valley,az,us,formation,1200,20 minutes,THEY WERE AMBER COLOR.STARTED IN A STRAIGHT VERTICLE LINE. THOUGHT THEY WER ORIONS BELT. THEY MOVED INTO A TRIANGLE FORMATION. THERE WA,2/16/2000,34.6100000,-112.315
2/4/2000 22:40,osceola,in,us,other,1,1 second,a large shaft of blue light that appeared more or less perpendicular to the horizon,2/16/2000,41.6650000,-86.0758333
2/4/2000 23:59,euless,tx,us,fireball,3,approx 3 seconds,BRIGHT&#44 NEON GREEN FIREBALL OBJECT STREAKED ACROSS THE SKY; SIGHTED FROM THE HIGHWAY&#44 NEAR DFW AIRPORT IN EULESS&#44 TEXAS&#44 USA.,7/11/2000,32.8369444,-97.0816667
2/5/2000 19:30,pollock pines,ca,us,light,900,15 minutes,Light got brighter and closer and larger&#44 moving in circles&#44 then darting off left then to right,2/16/2000,38.7613889,-120.5855556
2/6/2000 01:00,black creek (canada),bc,ca,light,3600,1 hour,Over several nights&#44 we saw stars/lights that appear to move in erratic fashion&#44 these stars flicker in colour and intensity&#44 But they,12/2/2000,52.3,-121.116667
2/6/2000 06:30,st. albans,wv,us,changing,30,30 seconds,Witness recalls recent witnessing of Unidentified object in WV skys.,2/18/2001,38.3855556,-81.8363889
2/6/2000 19:30,las vegas,nv,us,other,10,5-10 sec.,Grey box-like craft&#44 no lights&#44 silent&#44 being followed by a helicopter,2/27/2000,36.1750000,-115.1363889
2/6/2000 22:30,la crosse (3-3.5 miles south of; goose island park),wi,us,unknown,300,5 minutes,Driving south on Hwy35&#44Isaw what appeared to be an air craft crossing the Mississippi river with two white lights which did not strobe.,2/16/2000,43.8013889,-91.2394444
2/7/2000 05:30,alton,il,us,triangle,60,about 1 minute,I watched a ship pass from my left to right&#44 right in front of me.,2/16/2000,38.8905556,-90.1841667
2/7/2000 11:00,shepparton (vic&#44 australia),,au,other,10,10secs,3 box shaped object appeared for about 10 seconds and then disappeared as if they teleported,3/7/2000,-36.38047,145.398666
2/7/2000 13:00,bullhead city,az,us,other,900,15 minutes,We witnessed two dark black lines in the west sky running straight down as if from twelve o&#39clock to six o&#39clock&#44   they were very dark,2/16/2000,35.1477778,-114.5675
2/7/2000 19:35,sebring,fl,us,light,1800,30 minutes,2 yellow stationary lights floating above Lake Jackson in Sebring&#44 FL multiply in diagonal formations.,2/23/2000,27.4952778,-81.4411111
2/7/2000 19:40,pima,az,us,fireball,300,5 min,Round&#44 silent&#44 stationary ball motionless in NW sky disappearing when approached by jet fighters.,2/27/2000,32.8961111,-109.8269444
2/7/2000 21:00,ionia,mi,us,triangle,900,15 minutes,Coming home from a basketball game in Palo I saw 2 UFOs flying in formation.,4/1/2000,42.9872222,-85.0711111
2/8/2000 00:30,prescott valley,az,us,circle,180,2-3 min.,Wife and I observed two bright yellow-orange objects moving NNE separating &#39til they dissapeared over horizon.,2/16/2000,34.6100000,-112.315
2/8/2000 04:00,ventura,ca,us,light,900,15 min,I noticed a bright light over the Santa Barbara island it didnt move for about 5 min then it began to move east then west then north an,2/16/2000,34.2783333,-119.2922222
2/8/2000 05:15,canton,ma,us,triangle,300,5 minutes,Traveling south RT 95 and observed bright lights west of RT 95 in Canton,2/16/2000,42.1583333,-71.1452778
2/8/2000 09:10,harbor city  / san pedro,ca,,circle,180,3 minutes,My girfriend &amp; myself looked up northeast and watched a jet. We then saw this object appear at 3:00 (position to plane)and had a circul,2/23/2000,33.740047,-118.287004
2/8/2000 17:15,avon park (n of&#44 to as far s of l. placid),fl,us,fireball,5400,1.5 hours,Driving east towards avon park on hwy 98 look up in the sky and saw a burnt-orange fireball. It would fade out and and glow back in ano,2/16/2000,27.5955556,-81.5063889
2/8/2000 17:40,north hollywood,ca,us,oval,720,12 minutes,I was driving eastbound on the 101 freeway when a very bright object suddenly appeared on the horizon and began travelling east at appr,2/16/2000,34.1722222,-118.3780556
2/8/2000 18:00,glendale,ca,us,disk,2,2 seconds,proceeding north on #2 FW in east Glendale.  Noted lights to left and above.  Turned head approx. 110 degrees.  Noted classic saucer sh,2/23/2000,34.1425000,-118.2541667
2/8/2000 19:07,seattle,wa,us,fireball,60,1 minute,Large glowing Red Firebell as I looked to the North/NorthEast from my home in Magnolia/Seattle.     So bright -- the light emanted into,2/16/2000,47.6063889,-122.3308333
2/8/2000 19:30,san antonio,tx,us,other,600,10 minutes,seen while driving...stationary bluish flashing lights high in sky..pattern involved.,2/16/2000,29.4238889,-98.4933333
2/8/2000 23:00,southbury,ct,us,circle,30,30 seconds,me and a couple of friends were having a party out in an abandoned sand pit one night. We had a bonfire going and everything then sudde,4/1/2000,41.4813889,-73.2136111
2/9/2000 08:25,columbia,mo,us,unknown,60,1 minute,MISSOURI INVESTIGATORS GROUP REPORT:  While driving to work this morning we saw an unusual object in the sky&#8230;,8/24/2010,38.9516667,-92.3338889
2/9/2000 18:15,bristol,vt,us,triangle,300,5 minutes,Luminous triangular shaped object&#44 very large&#44 moving to Northeast.  Object changed to four distinct lighted objects&#44 travelling in a s,2/16/2000,44.1333333,-73.0794444
2/9/2000 18:50,harrington (10 miles south),wa,us,other,300,5.min?,My Husband&#44 and I had been coming from the Ritzvill&#44 Wa area driving torwd Harrington&#44 Wa.  We seen what appeared to be the back side o,2/16/2000,47.4811111,-118.2533333
2/9/2000 19:10,deer park,ny,us,light,5,5 seconds,While driving on Commack Rd. I looked up and saw a bright light moving slowly.  At first I thought it was a plane&#44 but it suddenly took,2/16/2000,40.7616667,-73.3297222
2/9/2000 19:30,tucson,az,us,other,5,1/2 hr apx.,In the western sky there were a semi circular formation of lights twinkling. White and brilliant in a formation. The sky apeared to hav,2/16/2000,32.2216667,-110.9258333
2/9/2000 20:25,columbia,mo,us,unknown,60,1 minute,While driving to work this morning we saw an unusual object in the sky...,2/16/2000,38.9516667,-92.3338889
2/9/2000 20:30,ranger,tx,us,light,60,1 minute,Brief stationary lights above horizon with not movement,2/16/2000,32.4697222,-98.6786111
2/9/2000 20:45,toledo,wa,us,oval,120,1-2 minutes,Oval object bright green in color transverses sky from NNW .. stops .. hovers .. accelerates to East .. stops .. hovers ... accelerates,2/16/2000,46.4400000,-122.8455556
2/9/2000 21:00,northport (5 miles north of),wa,us,changing,2700,45 minutes,The evening was clear and I was looking off to the west/southwest up into the sky at about a 10:00 position. I suddenly noticed a clust,4/1/2000,48.9161111,-117.7805556
2/9/2000 21:00,sea tac airport,wa,,triangle,60,1 minute,Sighting at Sea-Tac,5/24/2005,47.44443,-122.300497
2/9/2000 21:03,lake elsinore,ca,us,sphere,4,3-4 sec.,I was watching TV&#44 started receiving interference&#44 I went out for a cigarette I looked up to a sky covered with clouds when I saw,2/16/2000,33.6680556,-117.3263889
2/9/2000 22:00,seattle,wa,us,circle,3,2-3 seconds,While stargazing&#44 a dark black object entered into my line of sight and headed toward the city. Very fluid and fast. No sound. A little,2/16/2000,47.6063889,-122.3308333
2/9/2000 22:12,prescott valley,az,us,,900,15 minutes,Three bright orange in color&#44 objects came across the sky&#44 seemed very close. hovered in a triangle&#44 then went into a single file. Move,2/16/2000,34.6100000,-112.315
2/10/2000 03:00,easthagbourne&#44 oxfordshire (uk/england),,,triangle,10800,3 hours,60 or more UFOs seen by 5 witnesses over fields near a small village..........,11/20/2002,51.594529,-1.234521
2/10/2000 04:20,kirkland,wa,us,other,8,8 seconds,Driving to work at 4:20 am I saw a green light and trailing left wingtip angle over my car at 200 mph &amp; 100-200 ft altitude.,6/21/2000,47.6816667,-122.2075
2/10/2000 19:30,alturas (se of),fl,us,fireball,480,8 minutes,We saw two bright lights traveling SE of Alturas.  Both bright orange-yellow lights&#44 bigger than a plane&#44 almost as big as a the moon&#44,2/16/2000,27.8713889,-81.7152778
2/10/2000 21:14,toronto (canada),on,ca,triangle,120,2:oo min,the car died and in the sky was a triangle shape object,12/23/2002,43.666667,-79.416667
2/11/2000 17:10,sotira,,,other,240,4 minutes,A bell shape purple color object passed by me,8/20/2001,35.026667,33.950278
2/11/2000 19:20,tucson,az,us,unknown,900,15 min,A series of 4 or 5 lights&#44 blinking and moving in a westward direction. No pattern at all to the lights.,2/14/2008,32.2216667,-110.9258333
2/11/2000 20:15,rockford,il,us,light,1200,20 mins.,Orange lights&#44 flying low.  Fire balls shooting out of one.  Another flew off into space.,2/23/2000,42.2711111,-89.0938889
2/11/2000 21:00,rockford,il,us,formation,900,15 minutes,Saw 5 orange lights in the sky viewed them for awhile they formed the big dipper then dimmed out,2/23/2000,42.2711111,-89.0938889
2/11/2000 21:15,rockford,il,us,fireball,900,10-15 minutes,While out for a family night we observed five orange glowing objects three times larger than visible stars flying in formation and doin,2/23/2000,42.2711111,-89.0938889
2/11/2000 22:00,houston,tx,us,other,120,2 minutes,Silver thin ribbon like thing going slowly south.  Seen in Houston at 10:00 pm.  It was spotted in early nov. 2000.,12/9/2000,29.7630556,-95.3630556
2/12/2000 17:00,buffalo/amherst,ny,,circle,900,10-15 minutes,Circular jet black object remained motionless in the sky for 10 minutes then smoothly moved away out of sight.,2/23/2000,42.94053,-78.869791
2/12/2000 20:00,dundee/ lake wales,fl,,fireball,600,5-10 minutes,WELL THEY ARE BACK AGAIN&#33&#33&#33 while at a church youth group meeting we were let out for a break as we left the building we observed two f,2/23/2000,28.019735,-81.610977
2/12/2000 20:45,fort lauderdale,fl,us,fireball,3,3 sec,i was wallking back to the car and i saw a light off to my right in the night sky at about 45 degrees. it was greenish yellow in color,2/23/2000,26.1219444,-80.1436111
2/12/2000 22:00,rockford,il,us,sphere,900,15min,my wife and I saw a bright orange ball decending out of the east then leveling off then going about half a block then turning to the no,2/23/2000,42.2711111,-89.0938889
2/13/2000 02:00,salem,or,us,circle,600,10 minutes,Orange orb,8/5/2000,44.9430556,-123.0338889
2/13/2000 18:42,sandpoint (ne of),id,us,light,45,45 sec.,Bright light moving from west to east&#44 which went from the horizon to directly overhead in less than a minute&#44 with no sound.,2/16/2000,48.2766667,-116.5522222
2/13/2000 18:55,yuma (20-25 miles west of) near i-8/mexican border.  proba,ca,,unknown,11400,3 hours 10 minutes,I saw 2 unidentified craft performing up and down and around movements over the course of about 3 hours between Yuma&#44 AZ and El Centro&#44,8/5/2001,36.778261,-119.417932
2/14/2000 05:20,jackson,mi,us,diamond,1800,30 min,never going hunting alone&#33&#33&#33,9/17/2000,42.2458333,-84.4013889
2/14/2000 15:34,todmorden (uk/england),,gb,light,60,1 minute,a small ball of light or a highly reflective surface was following an aircraft&#44 i looked up and saw a plane with a smoke trail flying h,2/18/2001,53.716667,-2.083333
2/14/2000 16:26,hermitage,ar,us,sphere,60,1 min,Small white bright object observed while using scope on day moon--object split into two and disappeared.,2/16/2000,33.4463889,-92.1738889
2/14/2000 18:00,barocay island (philippines),,,light,1200,20min,The half-moon was directly over head&#44  it looked like a star&#44same brifgtness&#44 size&#44 moving n.e. 1st one 6;50 PM IT TOOK acount of 40 mi,2/16/2000,11.96735,121.924759
2/15/2000 01:30,mahony city (outside),pa,,light,60,about 1 minute,Two atvs followed by a hovering blue light.,1/29/2002,40.812588,-76.141603
2/15/2000 01:38,flushing/queens,ny,,egg,60,1 minute,I WAS WALKING HOME FROM THE MOVIES WITH MY FRIEND&#39S&#44 AND WE SAW THESE EGG SHAPED FLYING SHIP&#39S IN THE SKY.,2/27/2000,40.767499,-73.833079
2/15/2000 02:30,rocky mount,nc,us,unknown,1200,20mins,2:30 2000 feb. Rocky Mount N.C.  Space Traverlers Object came throgh a circle in space  then emitting  smaller objects .,12/3/2004,35.9380556,-77.7908333
2/15/2000 04:00,petrified forest national park,az,,oval,15,15 seconds,Petrified Forest strobing ufo,12/7/2006,34.90999,-109.806792
2/15/2000 04:00,petrified forest national park,az,,oval,15,15 seconds,Landed Craft with strobes and bright light near Petrified Forest,10/30/2006,34.90999,-109.806792
2/15/2000 12:30,honolulu,hi,us,disk,60,1 minute,Grey disk flying over Hickam AFB.,4/14/2009,21.3069444,-157.8583333
2/15/2000 16:30,scottsdale,az,us,fireball,4,4 seconds,Fireball seen in North East sky with short contrail&#44 ending in flash with contrail pointing downward.,2/16/2000,33.5091667,-111.8983333
2/15/2000 19:11,barnum,mn,us,teardrop,5,00:05,I had been driving home from work and I seen lights rotating.  I stopped and backed up to get a better look.  While backing up the UFO,2/23/2000,46.5030556,-92.6883333
2/15/2000 20:00,little rock,ar,us,other,600,10 minutes,The orange&#44 white&#44 pink&#44 and maybe red lights of a boomerang shaped object flying west at slow speeds.,7/11/2000,34.7463889,-92.2894444
2/15/2000 20:00,kosovo,,,light,120,2min,There was 3 of us standing outside having a smoke when a light object appeared and hovered over the town for approx 30 secs then sped o,3/11/2006,42.581372,20.889336
2/15/2000 21:00,new canaan,ct,us,unknown,60,1 min,Saw a large dark object 50 ft across hovering silently in the air with three lights on the bottom searching the ground.,6/12/2002,41.1466667,-73.4952778
2/15/2000 21:20,fredericktown (outside of),oh,us,egg,600,10 minutes,I saw two bright white objects in the night sky swoop down and out of the horizon.,2/23/2000,40.4811111,-82.5408333
2/15/2000 23:00,tijuana (mexico),,,flash,1800,30 minutes,la estrella estuvo estatica por lo menos 30 min y su uida fue espectacular ni el mas moderno avion aria eso&#33,6/4/2004,32.514947,-117.038247
2/15/2000 23:00,hubbard,or,us,rectangle,120,several minutes,Rectangular&#44 enormous (football field size?)&#44 black and silent Hubbard&#44 Oregon 2000,8/12/2008,45.1825000,-122.8066667
2/15/2000 23:00,west memphis,ar,,light,10,10 seconds,IT SHOT STRAIGHT UP&#33&#33,5/24/2005,35.149534,-90.04898
2/16/2000 04:45,black canyon city,az,us,circle,300,5 minutes,A friend was drivg west on Cavecreek Hwy toward Blk Cnyn Cty when 3 lights with a bluest tint appeared. The objects circled around each,2/23/2000,34.0708333,-112.15
2/16/2000 18:35,atlantic,ia,us,formation,780,13 min.,Bright white flashing lights in the sky. Four objects flying in the shape of a &quot;W&quot;.  Followed them approximately 13 minutes&#44 keeping th,2/23/2000,41.4036111,-95.0136111
2/16/2000 20:30,dawsonville,ga,us,triangle,600,5 to 10 min.,The &quot;v&quot; shaped object was so low&#44 you could see that it was not lights.  It was not from Earth.,3/21/2003,34.4211111,-84.1191667
2/16/2000 21:05,seattle,wa,us,light,90,1.5 min,Bright star disappeared from sight.,2/23/2000,47.6063889,-122.3308333
2/16/2000 21:05,riverside,ca,us,light,120,several minutes,Stationary star-like light suddenly disappears,8/16/2002,33.9533333,-117.3952778
2/16/2000 21:30,rockford,il,us,triangle,1500,25 min,Orange fireballs&#44 upon closer observation appeared as delta shaped crafts. Moving in formation of a triangle with remaining crafts in a,2/23/2000,42.2711111,-89.0938889
2/16/2000 21:30,rockford (southern skies of),il,us,light,600,10 min,On Wed. Feb.16&#442000 I had just come out of the logli&#39s grocery store on State st. in Rockford&#44 IL. I placed my groceries in the van and,2/23/2000,42.2711111,-89.0938889
2/16/2000 21:30,rockford,il,us,triangle,900,15 minutes,MY SONS WERE GETTING READY FOR BED WHEN THEY CALLED ME INTO THEIR ROOM AND ASKED ME WHAT THIS THING WAS IN THE SKY.THE OBJECT WAS STATI,2/23/2000,42.2711111,-89.0938889
2/16/2000 21:30,rockford,il,us,fireball,900,15 minutes,There were 5 orangeish fireballs &#44 3 of the objects were in a triangular flight pattern. The other 2 were lower and to the left&#44 almost,2/23/2000,42.2711111,-89.0938889
2/16/2000 21:30,rockford,il,us,circle,900,10-15mins,8 orange lights in 2 clusters of 3 and 1 moving very slowly west to east then disappearing,2/23/2000,42.2711111,-89.0938889
2/16/2000 21:30,rockford,il,us,circle,1305,21:45,well thare wer eight balls of light almost like fire thay wher vary brite like a star. thay wher redish orang in coler &amp; shine&#39d vary b,2/23/2000,42.2711111,-89.0938889
2/16/2000 21:30,rockford,il,us,circle,1200,20 min,AT 930 PM TO 950PM 5 ROUND ORANGE BALLS CAME FROM THE WEST AND STOPPING OVERHEAD MOVING INTO VARIOUS FORMATIONS. THEN FADING OUT AS THE,2/23/2000,42.2711111,-89.0938889
2/16/2000 21:30,rockford,il,us,changing,3600,1 hour,Seen glowing lights that changed shapes&#44and rotated around each other.,2/23/2000,42.2711111,-89.0938889
2/16/2000 21:30,rockford,il,us,fireball,900,15 minutes,Came out of a meeting on E. State street and looked up along with several people to see several fireballs forming formations in the Eas,9/24/2012,42.2711111,-89.0938889
2/16/2000 22:00,dallardsville,tx,us,rectangle,30,30 seconds,I saw something flying over the tree tops.  The wings were all lite up and it was shining on the tree tops.  Over the wing there was a,2/23/2000,30.6283333,-94.6316667
2/16/2000 22:00,glasgow (ayrshire) (uk/scotland),,gb,light,120,2 min.,4 lights in the sky stopping from high speed to 0 then moving across the sky eraticly no sound.,11/28/2007,55.833333,-4.25
2/16/2000 22:00,walkerton,in,us,light,300,5 minutes,it had 3 white lights almost like an up side down triangle. In the center it had a red light which never blinked or flashed.,2/23/2000,41.4666667,-86.4830556
2/16/2000 22:15,rockford,il,us,sphere,1200,15-20 minutes,5 objects in formation&#44 disappeared&#44 4 more appeared in different formation,2/23/2000,42.2711111,-89.0938889
2/17/2000 00:00,ashgrove,mo,,light,240,4 minutes,Bright orange light hovering above the trees,8/5/2001,37.315326,-93.5852
2/17/2000 18:30,auburn,wa,us,triangle,15,15 seconds,Driving N. on C St. and noticed plane or ? coming from the west and directly overhead--traveling faster than any I&#39ve ever seen--but ve,2/23/2000,47.3075000,-122.2272222
2/17/2000 19:00,rockford,il,us,disk,40,40-sec.,driving down road looked out window and saw bright orange light&#44? looked like the back lights to a car did not blink or no noise.,2/23/2000,42.2711111,-89.0938889
2/17/2000 19:35,wisconsin dells,wi,us,light,1200,20 minutes,6 Rapidly moving lights... then down to 1,3/16/2000,43.6275000,-89.7708333
2/17/2000 20:00,cornwall (canada),on,ca,light,10,ten seconds,Saw a cluster of red lights moving through the sky at high speed with no sound,12/2/2000,46.24,-63.21
2/17/2000 21:30,pine hill,nj,us,chevron,30,30 seconds,Black Metallic Boomerang-Shaped Craft Hovering Motionlessly,2/23/2000,39.7841667,-74.9925
2/18/2000 19:00,pasadena,ca,us,light,300,5 minutes,It looked like a small tuft of cloud&#44 but didn&#39t move like one,2/23/2000,34.1477778,-118.1436111
2/18/2000 20:00,prescott valley,az,us,fireball,240,4 min,We watched 2 fire like lights cross the sky from the northeast to the southwest in a synchroniced fashion.,2/23/2000,34.6100000,-112.315
2/18/2000 22:00,jacksonville,fl,us,triangle,300,5 min total,Triangle shaped craft hovering about 70ft at old kings and baymeadows-quiet hissing sound.,2/27/2000,30.3319444,-81.6558333
2/18/2000 22:50,glendale,ar,us,light,120,2minutes,using the restroom&#44 had my window open about4&quot; seen what looked like an aircraft. It caught my eye. Itwas heading southwest it then Sto,2/23/2000,33.9627778,-91.9591667
2/19/2000 13:30,superior,co,us,rectangle,30,30 seconds,While traveling South on McCaslin Blvd. my son and I observed a shiny object in the sky at about 30 degrees above the horizon.  It seem,2/23/2000,39.9527778,-105.1680556
2/19/2000 14:18,miami,fl,us,light,5,5 seconds,While observing the western sky thru binoculars&#44 saw dim light for about 5 secs (near Epsilon Leo) light changed directions twice.,2/23/2000,25.7738889,-80.1938889
2/19/2000 18:24,wilmington,oh,us,triangle,20,15-20seconds,i was driving down st rt 73 south three miles south of wilmington.i saw a black triangle ahead&#44just above the horizon.i saw another one,2/23/2000,39.4452778,-83.8286111
2/19/2000 19:05,seatac,wa,us,light,10,10 seconds,An extremely bright light in the sky very high up and moving west to east.,2/23/2000,47.4538889,-122.3205556
2/19/2000 21:15,los banos (remote east 156 near ),ca,us,other,10,half hour or so,traveling 156 we noticed what appeared to be a satalite or plane but to close to ground as we got closer a told my sun to look at the m,2/23/2000,37.0583333,-120.8488889
2/19/2000 22:30,dallardsville,tx,us,changing,10,10 seconds,An object went from the northeast to the southwest. It took the same path as the UFO sighting on 02/16/00.  It was lit up like lighteni,2/23/2000,30.6283333,-94.6316667
2/19/2000 23:00,tacoma (going north on i-5),wa,us,changing,5,5 seconds,North on I-5&#44 looked to west and could see UFO heading east. Object was larger than moon that night&#44 was a green glowing light that tur,2/23/2000,47.2530556,-122.4430556
2/19/2000 23:00,swansea (uk/wales),,gb,other,420,7 mins,dart shaped  craft  flying silently   along the streets in swansea &#44wales&#44 uk,5/15/2006,51.633333,-3.966667
2/19/2000 23:45,molson (east of),wa,us,fireball,5,3 to 5 seconds,Bright white object traveled approx due east leaving a neon green&#44 blue tail with red within it. Tail changed between green &amp; blue and,11/20/2002,48.9811111,-119.1994444
2/20/2000 13:04,athens,oh,us,cylinder,90,30secs/1min+,Witnessed silvery white cylinder travel across sky and then vanish.,2/27/2000,39.3291667,-82.1013889
2/20/2000 18:00,orlando (sw orange co.),fl,us,oval,60,1 minute,Craft hovered slowly at low altitude then took off.  No sound. Metalic&#44 setting sun reflected off it From - Sun Feb 20 21:32:29 2000 Re,2/23/2000,28.5380556,-81.3794444
2/20/2000 21:45,gresham,wi,us,unknown,3600,over an hour,Flashing star like object&#44 red&#44green&#44white. has not moved for over an hour.,2/23/2000,44.8530556,-88.7880556
2/20/2000 22:30,cottage grove,or,us,formation,120,2 minutes,They were strange looking objects that had a very wierd look to them,2/24/2001,43.7977778,-123.0583333
2/21/2000 18:00,lodi,ca,us,other,2,2 seconds,Floating rod with 4 to 6 sequentially flashing lights appeared over freeway near an airport. Object was clearly seen but appeared and d,2/23/2000,38.1302778,-121.2713889
2/21/2000 19:43,klamath falls,or,us,fireball,20,20 sec,green fireball size of basketball&#44 in southeast going northeast with short white tail and behind it was a bright red tail and vanished,2/23/2000,42.2250000,-121.7805556
2/21/2000 19:43,corvallis,or,us,fireball,10,< 10 sec,Neon green fireball trailing orange-red tail visible less than 10 seconds&#44 moving NNW above Corvallis&#44 OR.,2/23/2000,44.5647222,-123.2608333
2/21/2000 20:00,orland park,il,us,fireball,600,approx 10 min.,Unexplained bright white lights over Southwest Cook County IL,2/24/2001,41.6302778,-87.8538889
2/21/2000 20:40,tupelo,ms,us,cylinder,30,30 sec,cylinder object seen in front of moon. after 10 sec slowly decending,2/23/2000,34.2575000,-88.7033333
2/21/2000 21:45,los altos hills,ca,us,disk,2,<2 seconds,Object resembled two inverted teacups.Backlit by emerging full moon. No sound. In and out of line of sight in less than 2 seconds.,2/23/2000,37.3797222,-122.1363889
2/21/2000 23:30,pennien hills (uk/england),,,light,120,2 mins,the ship was flashing in red green and yellow sort of bobing up and down and side to side it was very fast thir was no sound,2/27/2000,51.256817,-1.129562
2/22/2000 06:00,prescott valley,az,us,cylinder,600,10 min.,I witnessed two cylinder shaped objects slowly floating along and rotating at the top of their bases&#44 with orange lights in the shape o,2/23/2000,34.6100000,-112.315
2/22/2000 06:00,prescott valley,az,us,cylinder,600,10 min.,When leaving for work&#44 I saw two orange&#44 glowing objects in the sky. They were in the shape of a cylinder with lights in the bottom tha,2/23/2000,34.6100000,-112.315
2/22/2000 06:00,prescott valley,az,us,cylinder,600,10 min,Flying &quot;Coke can figures&quot; that were rotating at the top with the shape of X lights at the bottoms.,2/23/2000,34.6100000,-112.315
2/22/2000 19:00,ogden,ut,us,light,40,40 seconds,We saw a bright&#44 blue laser in the south east sky just to the left of orion for about 40 seconds before it was gone. 35 miles south is,2/27/2000,41.2230556,-111.9730556
2/23/2000 08:18,kenai,ak,us,cone,40,30-40 sec,While bringing my children into school we all witness a white object in a cone shape moving across the horizon. My daughter saw it firs,2/23/2000,60.5544444,-151.2583333
2/23/2000 17:00,ridgecrest,ca,us,cigar,2,several seconds,Ridgecrest CA Documented 20 Sept.&#44 2003  Sighting of unknown flying craft:  Date: Wed 23 Feb. 2000 Time: Late afternoon&#44 estimated abou,9/28/2003,35.6225000,-117.67
2/23/2000 22:00,helsinki (finland),,,other,1200,20 minutes,A star-like object moved slowly but clearly until disappeared behind trees.,2/23/2000,60.173324,24.941025
2/23/2000 22:55,wrightsville,ga,us,triangle,900,aprox.15 min,On the above date and time I was patroling the perimeter of the Prision I work when I observed a triangle shape object hovering behind,4/26/2000,32.7291667,-82.72
2/24/2000 01:15,huntsville,al,us,disk,1,one second,I saw a green-yellow light flash across the sky. It was too fast to be a plane and it wasn&#39t a searchlight or anything. It flashed acro,2/27/2000,34.7302778,-86.5861111
2/24/2000 20:30,o&#39brien,fl,us,light,7200,2 hours,Very bright white to yellow lights lasting 5 to 15 seconds at various positions in the sky,3/7/2000,30.0380556,-82.9402778
2/24/2000 20:30,tallahassee (williams and st. joe sts.&#44),fl,us,triangle,300,five mins,Mother and two children&#44 twin boy and girl&#44 were driving home from shopping and the son saw three lights&#44 two orange/red at the base of,2/27/2000,30.4380556,-84.2808333
2/24/2000 21:55,hebden bridge (uk/england),,gb,teardrop,90,1.5 mins approx,shaped like a tear drop but upside down i.e point down&#44 seen through cloud cover&#44 movment slow but erratic&#44 someone a little further up,2/27/2000,53.75,-2.016667
2/24/2000 23:00,hollywood,ca,us,light,900,15 minutes,Bright&#44 bi-colored&#44 stationary lights above clouds.  Hundreds of witnesses.,3/7/2000,34.0983333,-118.3258333
2/26/2000 02:00,vandalia,oh,us,light,7200,2 hours&#44approx.,What at first appeared to be stars&#44 were not.  The UFO&#39s (numbering at least 75 in number) had definitive patterns and actions.,3/7/2000,39.8905556,-84.1988889
2/26/2000 06:29,tonawanda,ny,us,egg,60,1 minute,Orange egg shaped object traveling upward at 3 rates of speed and breaking the atmosphere or disintegrating-followed by a black triangu,2/27/2000,43.0202778,-78.8805556
2/26/2000 17:18,durham,nc,us,circle,5,5 sec,I witnesswed a light in the sky increase in size and brightness. As it reached its pinnacle it began to decrease in size and brightness,2/27/2000,35.9938889,-78.8988889
2/26/2000 19:20,mcclave,co,us,light,420,7 minutes,Unusual orange-gold light in southern sky,3/7/2000,38.1375000,-102.85
2/26/2000 23:30,goshen,in,us,light,600,~10 min,A light that approximated a full moon in appearance above the tops of tress that are approximately 200-300 yards from observation point,2/27/2000,41.5822222,-85.8344444
2/27/2000 19:30,chicago,il,us,triangle,180,3 minutes,dull reddish orange triangles in a y formation flying north around downtown chicago&#9;,3/7/2000,41.8500000,-87.65
2/27/2000 20:40,perth (western australia),,au,unknown,15,15 seconds,OK&#44 I saw a flashing at very high altitude with a faint red light moving with it.,2/27/2000,-31.95224,115.861397
2/27/2000 21:15,bloomington,in,us,cigar,10,10 seconds,I saw an object with four white lights on it speed across the sky and then disappear.,3/7/2000,39.1652778,-86.5263889
2/27/2000 23:00,portland,or,us,unknown,180,3 minutes,Four bright lights with blinking light in the middle seen over Cornilius Pass,7/25/2004,45.5236111,-122.675
2/28/2000 05:15,virginia beach,va,us,chevron,600,10 min,I saw what seemed to be 5 separate lights in the eastern sky. One bright light and 4 smaller and less bright lights. The lights were in,3/7/2000,36.8527778,-75.9783333
2/28/2000 11:00,lehigh acres,fl,us,light,2,2sec,WE WERE WATCHING SCIFI AND MAN VIDIOED BY BLOCKING SUN. WE THOUGHT FUNNY AND FIGURED TO TRY. TAPED A DISTINCT OPJECT CAME UP FROM RIGHT,3/7/2000,26.6250000,-81.625
2/28/2000 14:00,olancha,ca,us,sphere,300,5 min.,from my vehicle&#44 I spotted dozens of small silverey spheres high above the mountains in a group that looked like birds&#44 or how bats fly,3/7/2000,36.2819444,-118.0055556
2/28/2000 19:30,walworth,wi,us,circle,3,3 seconds,On Feb 28&#44 2000&#44 7:30pm&#44 in south WI&#44 I saw 5 circular&#44 orange objects in formation moving extremely fast from SW to NE lasting 3 secon,3/7/2000,42.5311111,-88.5994444
2/28/2000 20:05,andover&#44 hants (uk/england),,,disk,360,6 mins,Me&#44 my brother and a friend were going out to meet two friends when i noticed a blinding light in the sky. It stayed bright for two min,3/7/2000,51.211198,-1.491923
2/28/2000 21:30,charlestown,ri,us,light,1800,30 min.,Light over submarine base&#44 Groton&#44 CT.,3/7/2000,41.3830556,-71.6422222
2/29/2000 22:00,windsor (canada),on,ca,triangle,180,2-3 minutes,OBSERVED TRIANGULAR FORMATION OF LIGHTS AT EST&#39D 30&#44000 FEET TRAVELLING S.E. TO N.W. AT A TREMENDOUS RATE OF SPEED. ASSUME IT WAS A TRI,12/2/2000,45.583333,-72.0
2/29/2000 22:00,tumwater,wa,us,egg,180,3 mins.,UFO moving rapidly across the sky.  Large sudden movement up&#44down and then up again.  Possible twirling.  Loss sight of ufo due to obst,3/7/2000,47.0075000,-122.9080556
2/29/2000 22:40,antioch,ca,us,light,120,2 minutes,Observed a bright orange glowing light in controlled flight which abruptly disappeared&#44 replaced by spark like lights which continued o,3/7/2000,38.0050000,-121.8047222
3/1/2000 00:00,hawthorne,nv,us,,45,45 seconds,Unusual heat lightning,3/7/2000,38.5247222,-118.6236111
3/1/2000 00:30,pineville (pinnacle strip mine),wv,us,triangle,900,15 mins,Saw a triangle shaped craft&#44 very large&#44 made very little noise&#44 low altitude.,3/16/2000,37.5830556,-81.5372222
3/1/2000 04:45,coram,ny,us,light,20,20 sec,the orb shot up very very  fast then twinkled at me. it left me thinking about past exploits,8/12/2008,40.8686111,-73.0019444
3/1/2000 14:00,tucson,az,us,other,60,1minute,Easter weekend&#44I was visiting my family&#44we were having a barbecue in the back yard&#44Around fifty feet away is a large tree&#442 birds come,8/5/2001,32.2216667,-110.9258333
3/1/2000 17:00,fountain valley,ca,us,light,180,3 min,Bright star all of a sudden disappeared like it had never been there at all.,3/7/2000,33.7091667,-117.9527778
3/1/2000 19:00,sterling,co,us,rectangle,20,20 seconds,Small&#44 silent&#44 glowing probe above house,5/15/2013,40.6255556,-103.2072222
3/1/2000 20:00,venice,fl,us,fireball,4,4 seconds,The witness was traveling on I075 north from Venice when he saw a fireball that was 1/2 the size of an aspirin at arms length and it wa,3/7/2000,27.0994444,-82.4544444
3/1/2000 20:55,isabela (puerto rico) ?,pr,,changing,120,2 mins.,Bright orange ball&#44 moving east of Jupiter due north; separated into 3 orbs - 1 orange orb due magn. North&#44 2 blue orbs due WNW.,3/7/2000,18.456131,-67.02263
3/1/2000 21:00,lake pontchartrain,la,,triangle,300,5 minutes,Light-absorbing craft pays homage to Mardi Gras.,10/15/2002,30.205062,-90.11207
3/1/2000 23:00,houston,tx,us,disk,300,5 minutes,It was doing something on the woods&#44 mostly because of the cows.,4/27/2007,29.7630556,-95.3630556
3/1/2000 23:00,oskaloosa,ia,us,chevron,180,3 minutes,A dark&#44 vertical boomerang that moved slowly,4/8/2002,41.2963889,-92.6441667
3/2/2000 01:15,memphis,tn,us,formation,1800,30 min +,A formation of 3 objects in a straight line&#44 unmoving&#44 occasionally changing color.,3/7/2000,35.1494444,-90.0488889
3/2/2000 07:45,maracay city&#44 aragua (venezuela),,,triangle,30,1:30 second,&#39Me and my friend Jesus saw a circular flying object silver color that was flyng slowly but suddenly accelerated and then reduced its s,3/7/2000,10.246944,-67.596111
3/2/2000 13:00,alhambra golf course,ca,,formation,7200,2 hours,While golfing I and six others observed a single round solid object in n/e sky. It broke into 3 objects smaller than the 1st&#44 then form,4/15/2000,38.55325,-121.473388
3/2/2000 19:00,springfield,mo,us,unknown,1500,approx. 25 min.,Counterclockwise rotation of four lights against overcast sky.,4/1/2000,37.2152778,-93.2980556
3/2/2000 22:45,paterson,nj,us,light,600,10 minutes,At around 10.45 p.m when I just looked at the sky&#44 i found 5 lighted objects.  The size of these lights were double the diameter of the,3/7/2000,40.9166667,-74.1722222
3/2/2000 23:42,pearl river,ny,us,oval,16200,4 hours and 30 minutes,Me and four of my friends were in the woods looking for my dog that ran away earlier that day. All of a sudden&#44 we heard a strange nois,3/7/2000,41.0588889,-74.0222222
3/3/2000 01:15,grove city,oh,us,triangle,3600,1 hour,Triangle arrangement of lights were witnessed above road. Also&#44 there was at least one red flashing light on one of the sides. It was a,3/7/2000,39.8813889,-83.0930556
3/3/2000 04:00,longwood,fl,us,light,20,20 seconds,A circle of light collapsed on the starlight&#44 and it fled due east.,6/18/2004,28.7027778,-81.3386111
3/3/2000 19:55,boone,ia,us,oval,120,1-2 min,Bright Blue/silver light&#44right over head&#44statonary&#44thought it was a star&#44The objict moved due North as it dimed to a very small light.,3/7/2000,42.0597222,-93.88
3/3/2000 20:00,prescott valley,az,us,circle,900,15 min,We saw four firey round objects floating in the sky&#44 North Easterly direction&#44 watch them about 15 minutes until they disappeared.,3/7/2000,34.6100000,-112.315
3/3/2000 22:05,washington&#44 d.c.,dc,,light,10,10 seconds,I observed two small lights cross the night sky from approximately Orion to the North Star.  They appeared to be chasing one another.,9/6/2002,38.907231,-77.036464
3/3/2000 22:20,ogden,ut,us,light,300,5 min,At 22:20pm I could see two lights in the sky.  They were flashing back and forth and then they would flicker and then go out and then r,3/7/2000,41.2230556,-111.9730556
3/4/2000 18:40,kansas city,mi,,sphere,2700,~45 minutes,Bright sphere up in daytime sky&#44 had companions&#44 apeared&#44 disapeard&#44 very strange,3/7/2000,44.314844,-85.602364
3/5/2000 03:40,miami (2 hrs. out of&#44 on i-95&#44 milemarker 117),fl,us,sphere,10,10seconds,Bright Dark emerald-green fireball&#44 less than 1/8 inch diameter at arms length.  No sparks or tail.  Had a trajectory&#44 coming 45 degree,3/16/2000,25.7738889,-80.1938889
3/5/2000 20:27,rockford,il,us,other,120,2min,Pulled in driveway looked north northeast saw a long light  N pULLED IN DRIVEWAY LOOKED NORTH NORTHEAST SAW SOME LIGHTS HANGING IN THE,3/7/2000,42.2711111,-89.0938889
3/5/2000 21:45,quincy (15 miles south of),il,us,light,300,5 minutes,Strange light on the southern horizon&#44 eventually circling sky to fly off to northeast.,3/16/2000,39.9355556,-91.4097222
3/5/2000 23:33,kenosha,wi,us,changing,22,22 seconds,bright flash&#44 occurs every other night for about 2 weeks&#44 still happening,3/7/2000,42.5847222,-87.8211111
3/6/2000 01:15,wrexham? (uk/england),,,circle,120,2 min,The object seemed to be following me although there were other vehicles on the road.,6/6/2000,53.04304,-2.992494
3/6/2000 03:30,salt lake city,ut,us,oval,120,2 mins,seen about 1 mile away.  had blue/white chaser lights at the bottom with a big red light on very bottom,4/1/2000,40.7608333,-111.8902778
3/6/2000 04:30,ocean shores,wa,us,triangle,120,2 minutes,Saw three objects flying in triangular formation over the Ocean&#44 OR it was one large craft. Monday&#44 March 6th&#44 4:30am,3/16/2000,46.9738889,-124.155
3/6/2000 12:00,gersh&oslash;j (denmark),,,circle,7200,a couple of hours,Black sphere and small objects &quot;searching&quot; for something,6/4/2004,55.716271,11.976056
3/6/2000 16:30,irvine,ca,us,sphere,60,1 minute,Four spheres flying in pairs apparently in formation swooped down and away and dissapeared in a flash.,3/7/2000,33.6694444,-117.8222222
3/6/2000 19:55,silver spring,md,us,other,600,10min,v shape but no lights &#44 very grayand thin type object.,3/7/2000,38.9905556,-77.0263889
3/6/2000 22:00,forbes (32km outside of) (nsw&#44 australia),,au,triangle,180,3minutes,A flash of light appeared in the sky as if it had  sped from a distant place&#44 before I could get closer it had disappeared but it left,8/5/2001,-33.384361,148.007599
3/6/2000 22:00,roland,ok,us,disk,360,6 minutes,UFO caught on videotape in Eastern Oklahoma.,4/1/2001,35.4211111,-94.5144444
3/6/2000 22:20,hugo,mn,us,light,30,30 seconds,Me and my friend witness a bright blue light moving rapidly across the sky. It moved across 60 degrees of the sky approximately&#44 then d,3/7/2000,45.1600000,-92.9930556
3/6/2000 22:21,wattweiler&#44 zweibruecken (germany),,,,300,3-5min,Located within a 13 arc minute circle from M42 (Orion Nebula) several light strobes were witnessed&#44 looking like the flash of an iridiu,3/7/2000,49.236089,7.316069
3/7/2000 07:00,venice/north port,fl,,oval,60,1 minute,While driving south on I-75 I spotted a bright metallic object reflecting the early morning sun.,3/16/2000,27.10641,-82.446788
3/7/2000 19:00,harrisonville,mo,us,other,4,3-4 seconds,Was outside talking with a friend when what at first appeared to be a spotlight passed overhead.  Quickly realized this was not the cas,3/16/2000,38.6533333,-94.3486111
3/7/2000 19:20,gaithersburg,md,us,formation,15,15 seconds,Three yellow/white lights moving in formation in north-south direction&#44 then suddenly shifting positions within the formation.,3/16/2000,39.1433333,-77.2016667
3/7/2000 19:45,kansas city,mo,us,circle,120,2 min.,Sitting outside enjoying the unusual good weather for this time of the year&#44 I and my wife noticed a circle of light aproach from the s,3/7/2000,39.0997222,-94.5783333
3/7/2000 20:50,severna park,md,us,cigar,5,5 seconds,saw 2 objects flying very fast&#44 at large bird height&#44 not making any noise and dissapeared into thin air.  they flew in different posit,3/16/2000,39.0702778,-76.5455556
3/7/2000 22:00,fresno,ca,us,formation,180,3 min.,AS ME AND 3 FRIENDS WHERE GOING HME FROM MARDI GRAS EVENT IN FESNO&#44CA. MY GIRLFRIEND&#44IRENE&#44 NOTICED AN OBJECT W/ 3 LIGHTS ON IT. I PULL,3/16/2000,36.7477778,-119.7713889
3/7/2000 22:00,gulf breeze,fl,us,fireball,10,10 seconds,on the night of the 7tha nd the 14th of March my boyfriend and i witnessed a 3- 5 fireballs in the eastern sky at about 10pm central ti,3/16/2000,30.3569444,-87.1638889
3/8/2000 05:37,magna,ut,us,disk,2,2 seconds,Yellowish White glowing disk&#44 Dime size at arms length.,3/1/2004,40.7091667,-112.1008333
3/8/2000 13:00,silver spring twp.,pa,,oval,30,:30 seconds,I was getting gas in a car when I noticed one planes making contrails.It was at about 2 oclock looking up .As I was starting to look aw,3/16/2000,40.247592,-77.033418
3/8/2000 21:30,delft&#44 zuid (netherlands),,,other,900,15 minutes,UFO that looks like flying car&#44 with headlights on.,3/16/2000,51.990925,4.364702
3/8/2000 23:30,huddersfield (uk/england),,gb,teardrop,600,10 mins,two egg shaped crafts hovering over Marsden moor&#44 Huddersfield&#44 uk.,4/1/2001,53.65,-1.783333
3/9/2000 17:05,fort smith,ar,us,oval,2100,35 minutes,A silvery oval-shaped object was seen shadowing two jetliners&#44 suddenly changing directions&#44 and flying in other parts of the sky south,3/16/2000,35.3858333,-94.3983333
3/9/2000 18:30,fallbrook (north),ca,us,circle,0.5,1/2second,For some reason I glanced up into a break in clouds&#44 before opening the door of my house causing me to stare intently at a object&#44that,3/16/2000,33.3763889,-117.2502778
3/9/2000 18:35,portland,me,us,light,120,1/2 min,my name is ((deleted))  portland me  04103  on 9&#44 march 2000(thursday) at approximately 635pm while e,4/15/2000,43.6613889,-70.2558333
3/9/2000 19:00,powhatan,va,us,fireball,5,5 sec,The object swooped down on my front pasture and proceeded to travel horizontally thru the air at a very quick speed for about 5-8 secon,3/16/2000,37.5419444,-77.9191667
3/9/2000 19:00,memphis (near west memphis),ar,,fireball,5,about 3 to 5 seconds,I also saw a fireball the night all the unusual activity was reported in AR.,5/11/2000,35.149534,-90.04898
3/9/2000 19:15,fort myers,fl,us,light,60,less than one minute,A non-blinking light passing the moon...then just gone.,3/16/2000,26.6402778,-81.8725
3/9/2000 19:30,istanbul (turkey),,,light,30,30 secs,2 star lights rotate  around each other&#44 one remained constant&#44 other moved...,9/13/2002,41.00527,28.97696
3/9/2000 19:45,vassalboro,me,us,other,600,10 min?,saw bright crescent shape light through curtains; pulled back to reveal crescent with very bright beacon or headlight hovering over tre,4/1/2000,44.4591667,-69.6780556
3/9/2000 20:15,buffalo,mo,us,fireball,3,3 seconds,Bright flash followed by fireball breaking up into red-orange embers.,4/15/2000,37.6459000,-93.0942
3/9/2000 20:25,eureka springs,ar,us,fireball,5,5 seconds,driving sw saw diffuse (sheet not bolt) lightning (clear sky) then looked to left (east) and saw rather large fireball meteor breaking,3/16/2000,36.4011111,-93.7377778
3/9/2000 20:30,conway,ar,us,fireball,4,3-4secs,The same night a fireball landed in England Arkansas&#44 I saw a (meteorite) GREEN in color with an ORANGE tail of about 2 ft. in diameter,3/16/2000,35.0886111,-92.4419444
3/9/2000 20:30,houston,tx,us,triangle,60,1 minute,It was night and moved in a straight line from west to east at a steady pace.,5/24/2005,29.7630556,-95.3630556
3/9/2000 20:30,timbo (approx. 7 miles west of),ar,us,sphere,11,8-11 seconds,My Sister&amp; I Were driving north on a dirt road leaving the Flag Area of Stone County&#44at approximately 8:45 P.M. Thursday&#44March 9th&#442000,3/16/2000,35.8708333,-92.3169444
3/9/2000 20:30,timbo (approx.7 miles west of ),ar,us,sphere,10,10+seconds,My sister and I were heading home after work at about 8:30pm-9:00pm heading somewhat northwest(with my three children and my sisters 3y,3/16/2000,35.8708333,-92.3169444
3/9/2000 20:45,fredericksburg,va,us,fireball,5,5 seconds,Shot across the sky. Started orange then turned to a greenish color.Then it disappeared.,3/16/2000,38.3030556,-77.4608333
3/9/2000 20:45,olive branch (desoto city) (5 mi. s of memphis),ms,us,fireball,5,4-5 seconds,I WAS ON MY WAY TO WORK WHEN I WITNESSED AN ORANGE/RED FIREBALL WITH A REAL BRIGHT WHITE SILVERY LIGHT PERTRUDING OUT THE FRONT/TOP THA,4/1/2000,34.9616667,-89.8294444
3/9/2000 20:45,smyrna,tn,us,fireball,4,3 or 4 seconds,A large&#44 spherical object slowly descended through the sky in a diagonal until it disappeared behind the tree line.  It glowed in a bri,3/16/2000,35.9827778,-86.5186111
3/9/2000 21:00,sallisaw,ok,us,fireball,30,30 seconds,Fireball seen&#44 long duration and larger than normal brightness,4/1/2000,35.4602778,-94.7872222
3/9/2000 21:00,little rock (north of),ar,us,light,5,5 seconds,3 more people can confirm what was said on Art Bell 3-15. More from Little Rock.,3/16/2000,34.7463889,-92.2894444
3/9/2000 21:20,elmira,ny,us,disk,25,25 seconds,I saw an object that seemed to Break the laws of aerodynamics and Physics.  I have also included my first sighting in great detail.,3/16/2000,42.0897222,-76.8080556
3/9/2000 21:30,springfield,il,us,,2,2 sec.,Fireball in southern sky appx. 15 deg. abv. hor.  E. to W. slight down.,4/1/2000,39.8016667,-89.6436111
3/9/2000 22:09,mountain home (3 miles so. of mo in center of ar),ar,us,fireball,120,2 minutes,Bright&#44 white&#44 golf ball sized orb hit a glass like dome above the planet - creating 45 sec. of white night light in our forest - follo,4/1/2000,36.3352778,-92.385
3/10/2000 03:00,atlanta/dobbs afb,ga,,disk,7200,2hrs,March 10th i was sitting in a parking lot across from Dobbins A.F. Base to watch the jets make there mid- night runs. as I waited I kin,3/16/2000,33.915554,-84.516388
3/10/2000 04:00,ephrata,wa,us,other,300,3-5 min. max.,It appeared as a ghostly white-winged object traveling so slow as to give one the impression&#44 it was studying  the terrain below.,5/15/2006,47.3177778,-119.5525
3/10/2000 18:00,price,ut,us,light,600,10 min.,A large light the color of a freeway light (orange huge).  observe with feild glasses. No noise as it continued South and  blinked out.,4/15/2000,39.5994444,-110.81
3/10/2000 19:20,freedom,me,us,light,5,5 seconds,Bright light with diffuse edges&#44 flying at high speed&#44 low altitude&#44 no sound&#44 then disappearing suddenly,3/16/2000,44.5302778,-69.2983333
3/10/2000 20:58,rockford,il,us,diamond,1800,30 minutes,5 kite shaped(larger than stars)orangelights in western sky Stationary  15 mins faded gold->white&#44 then 3 more rose slowly from N-> SW,3/16/2000,42.2711111,-89.0938889
3/10/2000 21:15,rockford,il,us,light,1200,15-20 min.,This was something we all have NEVER seen before.  There has been no investigation that we know of&#44 except it was reported on the news.,4/1/2000,42.2711111,-89.0938889
3/10/2000 21:43,duncansville,pa,us,triangle,240,4 minutes,Ther was alot of wind so I decide to look out of my window to see the trees blowing&#44 I looked into the sky and to my suprise I seen a u,3/16/2000,40.4233333,-78.4341667
3/11/2000 03:30,unknown,fl,,unknown,15,10-15 secs,BRIGHT GREEN OBJECT THAT WAS DESENDING IN THE SKY AS IT GLOWED A BRIGHT GREEN COLOR THEN FADED OUT.,3/16/2000,27.590521,-80.40655
3/11/2000 12:30,mobile,al,us,triangle,60,1 minute,a triangular shame with white lights marking the corners no lines conecting the dots but flying in syncronized form.  to far in the sky,4/26/2000,30.6941667,-88.0430556
3/11/2000 16:30,houston,tx,us,sphere,8,8 sec+-,heading north to south FAST. 2 jets approaching it on either side going FAST from south to north.jets didin&#39t turn around to chase it,3/16/2000,29.7630556,-95.3630556
3/11/2000 19:00,citrus heights,ca,us,circle,300,5 minutes,orange in color&#44 seem to be spinning very fast&#44 and moving at a great deal of speed&#44 and height. We have seen this before in January 20,3/16/2000,38.7072222,-121.28
3/11/2000 19:04,fair oaks,ca,us,light,360,6 minutes,Three redish lights moving across the sky in absolute synchronicity. Lights were far too much apart to have been an airplane. Visible f,3/16/2000,38.6447222,-121.2711111
3/11/2000 19:10,rye (uk/england),,gb,egg,12,12 seconds,i object bright light &#44slow moving &#44silent black objectegg shape moved away from central light-light stopped and retracked on itself,12/2/2000,50.95,0.733333
3/11/2000 19:45,orangevale,ca,us,fireball,300,5 min,3 Objects traversing the sky&#44 burning out eventually,4/1/2000,38.6786111,-121.2247222
3/11/2000 21:00,santa barbara,ca,us,triangle,120,2 min.,Black triangle about the size of a mid-size commercial jet liner.,3/16/2000,34.4208333,-119.6972222
3/11/2000 21:00,gold bar,wa,us,sphere,1800,30 minutes,Two volunteer investigators from the Bigfoot Field Research Organization observed a glowing green/blue sphere hovering over a ridge tha,3/16/2000,47.8569444,-121.6958333
3/11/2000 21:20,dover,ar,us,triangle,1200,15-20 min.,A LARGE CRAFT FLEW THREW THE AIR AT UNMARKABLE SPEEDS. IT ALSO HAD A SMALL CRAFT THAT FOLOWED IT AND FLASHED ABOUT EVERY TWENTY SEC.,3/16/2000,35.4013889,-93.1141667
3/11/2000 21:30,las vegas,nv,us,oval,600,5-10 minutes,Orange colored oval object travelling slowly east from the extreme western part of Las Vegas.  The object was orbiting around in a circ,3/16/2000,36.1750000,-115.1363889
3/11/2000 21:45,gold bar/index (near&#44 f s 62 off hwy 2),wa,,light,1,00:01,Blueish light seen in mountains.,4/1/2000,47.765557,-121.479734
3/11/2000 22:45,buckeye (1-10 milepost 107 heading eastbound,az,,,900,15 minutes,Two very large&#44 round&#44 translucent&#44 hoovering lights over interstate 10.,3/16/2000,34.048928,-111.093731
3/12/2000 00:00,coral springs,fl,us,other,900,about 15 minutes,I saw something in the sky&#44 it was a red light&#44 not very big but it was fairly bright. It couldn&#39t have been an airplane because it was,7/1/2002,26.2708333,-80.2708333
3/12/2000 00:19,ocala (silver springs shores),fl,us,triangle,2100,35 minutes,Triangular craft with pulsating multi-colored lights; moving in various directions in no apparent course.,7/23/2000,29.1869444,-82.1402778
3/12/2000 01:19,simi valley,ca,us,fireball,1200,20 min.,On the date of 3-12-00&#44 A friend and I was outside in front of DENY&#39S in Simi Valley. When at 1:19 am in the moring when we both seened,3/16/2000,34.2694444,-118.7805556
3/12/2000 01:30,sunland,ca,us,light,360,5-6 min,My friend and I were driving home when we saw an orange light in the sky. When we stopped the truck to look at it we saw that it was mo,3/16/2000,34.2669444,-118.3013889
3/12/2000 01:45,encino,ca,us,sphere,300,appx. 5 minutes,the object first appeared as a star.  A blue line somewhere between a meteor tail and a long rocket boost appeared from it.  Suddenly t,3/16/2000,34.1591667,-118.5002778
3/12/2000 08:00,seattle,wa,us,cigar,6,5-6 seconds,Peter&#44 I was driving to Rentin to drop off my car at the Toyota Dealer.  I was headed south on on the freeway between I-90 and Rentin.,4/1/2000,47.6063889,-122.3308333
3/12/2000 13:30,marquette,mi,us,oval,20,20 seconds,High altitude&#44 high speed object traveled across the sky before dissapearing behind a cloud.,3/16/2000,46.5436111,-87.3952778
3/12/2000 19:35,falconer,ny,us,triangle,15,15sec,I viewed 5 triangular objects in a &quot;V&quot; formation heading from the South to the North.  The last 2 triangular objects in the formation c,3/16/2000,42.1186111,-79.1986111
3/12/2000 20:37,escondido,ca,us,light,300,5 min,saw 3 flickering lights slowly fade out and disapear at seperate times&#44 no sound and clear night.,3/16/2000,33.1191667,-117.0855556
3/12/2000 21:10,arkansas (northeast tip of),ar,,circle,20,20 seconds,Seen from 32&#44000 feet at night (aircraft)&#44 object was approaching at approx. 700 mph 2&#44000 feet below us..ball of light changing to bla,3/16/2000,35.20105,-91.831833
3/12/2000 23:00,plymouth borough,pa,,cross,1200,20 minutes,The witness noticed a stationary group of lights that appeared to be in the shape of a cross through a kitchen window. Going outside fo,3/16/2000,41.258551,-75.936405
3/13/2000 00:30,jacksonville,fl,us,light,300,5 minutes,A small white light moving through the night sky. (Not a sattelite&#33),12/3/2004,30.3319444,-81.6558333
3/13/2000 11:51,seattle,wa,us,diamond,120,2min,I saw a diamond shape craft moveing very fast and make a turn in the sky and start to pick up speed towads vancover B.C.,4/1/2001,47.6063889,-122.3308333
3/13/2000 13:00,torrance,ca,us,unknown,480,8min,aluminum color&#44 real bright&#44 and it moves forward real fast then it just stops&#44 then it comes back to its original spot&#44 then go away..,8/20/2001,33.8358333,-118.3397222
3/13/2000 17:00,healdsburg,ca,us,rectangle,60,60 seconds,Gigantic rectangle&#44 dark w/white spots. Followed by jets (2). Similar to Pheonix lights story.,1/31/2004,38.6105556,-122.8680556
3/13/2000 20:00,san jose,ca,us,light,30,15-30 seconds,A light blue streak in the sky around 8pm.  Meteor movement like.  Odd color.,6/6/2000,37.3394444,-121.8938889
3/13/2000 21:00,charleston,sc,us,circle,30,15-30 seconds,Extremely large&#44 slow-moving object moving toward bridge in Charleston&#44 SC - witnesses with no memory after sighting,7/5/2008,32.7763889,-79.9311111
3/13/2000 21:40,clarinda,ia,us,light,600,10 minutes,It looked like a star at first...,4/1/2000,40.7419444,-95.0380556
3/14/2000 04:50,new york city/staten island (w/ new jersey),ny,,unknown,300,5 minutes,see below,4/1/2000,40.579532,-74.150201
3/14/2000 16:35,scotts valley,ca,us,formation,120,2 minutes,3 &quot;Rods&quot; in a Unilateral Triangle Formation appeared to follow Hiway 17 Northbound,4/1/2000,37.0511111,-122.0136111
3/14/2000 22:30,indianapolis,in,us,cylinder,180,3min.,Iam a security officer with a chemical plant. While making a round i noticed a glowing object hovering just above some high tension lin,4/15/2000,39.7683333,-86.1580556
