Date,city,state,country,shape,duration (seconds),duration (hours/min),comments,date posted,latitude,longitude 
1/1/2014 00:00,sacramento,ca,us,unknown,120,1-2 minutes,Bright orange light to the east.,1/10/2014,38.5816667,-121.4933333
1/1/2014 00:00,sequim,wa,us,other,2100,35 minutes,Multiple bright orange orbs glowing in the sky and shedding droplets of light.,1/10/2014,48.0797222,-123.1005556
1/1/2014 00:00,springfield,or,us,circle,300,5 minutes,As we were watching the fireworks five or six orb like shapes hovered slowly across the sky and then seem to have disappeared moving aw,1/10/2014,44.0463889,-123.0208333
1/1/2014 00:00,taos,nm,us,circle,240,4 minutes,Orange lights hovering and making formations by old Taos convent that burnt down.,1/10/2014,36.4072222,-105.5725
1/1/2014 00:00,trussville,al,us,light,300,5 minutes,These were not planes I know this for a fact.,1/16/2014,33.6197222,-86.6088889
1/1/2014 00:00,wenatchee,wa,us,oval,210,3.5 minutes,4 amber/orange object hovering over The Clockum area.,1/10/2014,47.4236111,-120.3091667
1/1/2014 00:00,las vegas,nv,us,circle,120,2 minutes,9 orbs observed at New Years in Las Vegas.,1/10/2014,36.1750000,-115.1363889
1/1/2014 00:00,dallas,ga,us,sphere,1200,15-20 minutes,5 Reddish Amber Lights Moving Multiple Directions Then Disappear.,1/10/2014,33.9236111,-84.8408333
1/1/2014 00:00,colorado springs,co,us,,720,12 minutes,The stars were alive.,1/10/2014,38.8338889,-104.8208333
1/1/2014 00:00,brentwood,tn,us,circle,600,10 minutes,Orange flickering&#44 slow moving&#44 circular flying object.,3/27/2014,36.0330556,-86.7827778
1/1/2014 00:00,bakersfield,ca,us,light,300,5 minutes,3 bright orange lights disappear one burst into 5 lights.,1/10/2014,35.3733333,-119.0177778
1/1/2014 00:00,austin,tx,us,circle,300,5 minutes,Orange orbs above Austin&#44 TX&#44 on New Years 2014.,1/10/2014,30.2669444,-97.7427778
1/1/2014 00:00,moreno valley,ca,us,light,1800,30 minutes,Orange lights over the Moreno Valley sky.,1/10/2014,33.9375000,-117.2297222
1/1/2014 00:00,lafayette,la,us,unknown,240,2 sightings 1-4 minutes i,Multiple Sightings&#44Multiple Witnesses&#44 Same Night. #1- December 31 2013 10-11pm/ #2- January 1st 2014 12-12:30 AM.,1/10/2014,30.2238889,-92.0197222
1/1/2014 00:00,milpitas,ca,us,light,180,2-3 minutes,Slow moving orange light floated up over hills then move to left  descended and faded.,1/10/2014,37.4283333,-121.9055556
1/1/2014 00:00,kettering,oh,us,circle,45,45 seconds,Strange orange ball.,1/10/2014,39.6894444,-84.1688889
1/1/2014 00:01,clarksville,tn,us,sphere,600,10 minutes,3 Orange spheres in Clarksville&#44 TN sky on New Years after midnight.,1/16/2014,36.5297222,-87.3594444
1/1/2014 00:01,salem,or,us,light,300,5 minutes,Six yellow-orange lights with reddish halos moving from NE to SW at midnight on New Year&#39s Eve spaced about 45 seconds apart; no sounds,1/10/2014,44.9430556,-123.0338889
1/1/2014 00:01,henderson,nv,us,sphere,240,4 minutes,2 round balls of fire floating west to east across the sky then up and out.,1/10/2014,36.0397222,-114.9811111
1/1/2014 00:02,el paso,tx,us,formation,120,2 minutes,Very bright lights . In a form of a &quot;S.&quot;,1/10/2014,31.7586111,-106.4863889
1/1/2014 00:02,goose creek,sc,us,light,480,8 minutes,Red and Green lights above Goose Creek&#44 South Carolina New Years Morning&#33,1/10/2014,32.9808333,-80.0327778
1/1/2014 00:05,mt. pleasant,sc,us,circle,180,3 minutes,NYrs Eve right after 12pm  My husband &amp; I  went out on our deck and saw 6-7 orange/yellow spheres in a group floating in sky.,1/16/2014,32.7938889,-79.8627778
1/1/2014 00:05,elon,nc,us,circle,120,2 minutes,Red light moved slowly at low altitude in the sky at northeast tip of Alamance County&#44 NC.,1/10/2014,36.1027778,-79.5069444
1/1/2014 00:05,austin,tx,us,light,2100,35 minutes,Red lights all over the sky in Austin TX new year&#39s 2014.,1/24/2014,30.2669444,-97.7427778
1/1/2014 00:05,albuquerque,nm,us,egg,120,2 minutes,Bright reddish gold object seen in Albuquerque NM FIVE MINS after midnite on new years 2014.,1/10/2014,35.0844444,-106.6505556
1/1/2014 00:05,colorado springs,co,us,formation,120,2 minutes,Cluster of &quot;stars&quot; move after being at a stand still.,1/10/2014,38.8338889,-104.8208333
1/1/2014 00:05,spokane valley,wa,us,formation,600,10 minutes,21 Craft with bright red lights flying as a squadron in Spokane Valley.,1/10/2014,47.6733333,-117.2383333
1/1/2014 00:06,jacksonville,fl,us,circle,120,2 minutes,Round orange extremley fast moving and silent. Traveling west.,1/10/2014,30.3319444,-81.6558333
1/1/2014 00:07,deltona,fl,us,sphere,180,3 minutes,Well we was watching the fireworks outside for new years 1rst 2014 about 12:07 AM we live in Deltona Florida. And we saw this 3 dull.,1/10/2014,28.9002778,-81.2638889
1/1/2014 00:10,charlottesville,va,us,light,600,10 minutes,Orange lights in sky just after midnight on New Years Eve seen over Charlottesville&#44 VA.,1/10/2014,38.0291667,-78.4769444
1/1/2014 00:10,deltona,fl,us,circle,1200,20 minutes,Ten orange circles flying across sky.,1/10/2014,28.9002778,-81.2638889
1/1/2014 00:10,fairborn,oh,us,light,60,1 minute,Went outside&#44 looked up&#44 saw four orange&#44 unblinking lights in the sky. They appeared to be moving north in more or less a straight lin,1/10/2014,39.8208333,-84.0194444
1/1/2014 00:10,livermore,ca,us,light,300,3-5 minutes,Red Lights/Orbs in formation over downtown Livermore - New Years Eve 2014.,3/18/2014,37.6819444,-121.7669444
1/1/2014 00:10,wilmington,nc,us,triangle,30,30 seconds,3 orange orbs in triangular form perfectly still.,1/10/2014,34.2255556,-77.945
1/1/2014 00:10,modesto,ca,us,circle,300,5 minutes,Single object&#44 glowing red&#44 hovering in place with no nosie or movemrnt in the night sky.,1/10/2014,37.6391667,-120.9958333
1/1/2014 00:10,saint albans,wv,us,triangle,50,50 seconds,Orange lights in a triangular formation.,1/10/2014,38.3855556,-81.8363889
1/1/2014 00:12,baldwin,ny,us,fireball,240,3-4 minutes,Fireball over south shore long island.,1/10/2014,40.6563889,-73.6097222
1/1/2014 00:12,patterson,ca,us,sphere,600,10 minutes,Three orange/red spheres in alignment; leaving one at a time.,1/16/2014,37.4716667,-121.1286111
1/1/2014 00:15,salem,or,us,circle,420,7 minutes,Looked like some sort of patrol or scouting team.,1/10/2014,44.9430556,-123.0338889
1/1/2014 00:15,oakland park,fl,us,flash,5,5 seconds,Bright flash of blue light came out of nowhere in the clear night sky.,1/10/2014,26.1719444,-80.1322222
1/1/2014 00:15,greenfield,in,us,light,60,1 minute,Two distinct odd colored  red lights suddenly vanish.,1/10/2014,39.7850000,-85.7694444
1/1/2014 00:15,corona,ca,us,circle,120,2 minutes,3 bright orange circles in triangle formation on a clear night.,1/10/2014,33.8752778,-117.5655556
1/1/2014 00:15,burbank,ca,us,sphere,540,9 minutes,Burbank Ca. 3 Amber Orange Hovering Lights 9 minutes.,1/10/2014,34.1808333,-118.3080556
1/1/2014 00:15,boise,id,us,light,240,3-4 minute,Four orange orbs over Boise early new years day.,1/10/2014,43.6136111,-116.2025
1/1/2014 00:15,spanish fork,ut,us,unknown,900,15 minutes,Orange Orbs.,1/10/2014,40.1150000,-111.6541667
1/1/2014 00:15,wesley chapel,fl,us,fireball,90,90 seconds,An amber colored light appeared on the horizon and moved slowly&#44 in a very straight line&#44 East to West.,1/10/2014,28.2394444,-82.3280556
1/1/2014 00:18,lewes,de,us,light,1320,22 minutes,9 lights flew diffrent speeds some times fast and others slow W to E north of the canal Red-Green and Blue. They made no noise.,1/10/2014,38.7744444,-75.1397222
1/1/2014 00:20,hokes bluff,al,us,circle,600,10 minutes,I saw a bright red object on 1/1/2014 approximately 12:20 I recorded part of it before it just blinked and went out.,1/10/2014,33.9980556,-85.8663889
1/1/2014 00:20,roanoke,va,us,fireball,1020,17 minutes,Two orange fireball shaped craft observed by Military Retiree and son over 17 minutes.,1/10/2014,37.2708333,-79.9416667
1/1/2014 00:20,santa clara,ca,us,sphere,1500,25 minutes,Three fiery orange-red orbs&#44 all seen about 5 minutes apart&#44 ascended into space on a near vertical path.,1/10/2014,37.3541667,-121.9541667
1/1/2014 00:24,goodyear,az,us,sphere,180,3 minutes,Seven orange/red lights moving slowly and / or hovering.,1/10/2014,33.4352778,-112.3575
1/1/2014 00:25,spring hill,fl,us,circle,240,4 minutes,Four orange&#44 circular objects rising in the Eastern sky and disappearing vertically out of the atmosphere.,1/10/2014,28.5555556,-82.4505556
1/1/2014 00:30,bradenton,fl,us,fireball,300,5 minutes,I witnessed 2 orange orbs (thought to be flares at the time due to previous fireworks) moving east.,1/10/2014,27.4986111,-82.575
1/1/2014 00:30,fairfax,va,us,flash,30,:30,Orange lights seen at DC.,1/10/2014,38.8461111,-77.3066667
1/1/2014 00:30,south el monte,ca,us,sphere,360,4-6 minutes,2nd sighting of red sphere moving fast &#44 stopping and fading away.,1/10/2014,34.0519444,-118.0458333
1/1/2014 00:30,ocala,fl,us,light,1200,~20 minutes,12 slow moving orange lights over 20 minutes period.,1/10/2014,29.1869444,-82.1402778
1/1/2014 00:42,eastvale,ca,,fireball,180,3 minutes,UFO fireballs floating over the moutain.,1/10/2014,33.963056,-117.563889
1/1/2014 00:47,fort worth,tx,us,oval,120,2 minutes,Orange ball stationary in sky above neighborhood south of Fort Worth before leaving northbound.,1/10/2014,32.7252778,-97.3205556
1/1/2014 00:50,kirtland,nm,us,formation,420,7 minutes,While lighting fireworks on New Years Eve with my four children we witnessed three orange objects in the shape of a triangle in the sky,1/10/2014,36.7341667,-108.3591667
1/1/2014 00:53,reseda,ca,us,circle,60,<1 minute,Three orange lights on New Year&#39s Eve form triangle&#44 align themselves then disappear.,1/10/2014,34.2011111,-118.5355556
1/1/2014 01:00,fanwood,nj,us,fireball,900,15 minutes,8 round orang red orbs came from Watching mountain area over Fanwood NJ no noise they all went in the same direction and vanished.,1/10/2014,40.6408333,-74.3838889
1/1/2014 01:00,lehigh acres,fl,us,fireball,300,5 minutes,A fiery ball&#44 appearing to look like a helicopter on fire with no sound or other lights for 4-5 minutes in one spot before flying east.,1/10/2014,26.6250000,-81.625
1/1/2014 01:00,mt. pleasant,sc,us,other,1200,20 minutes,UFO orange spheres over Mt. Pleasant&#44 SC on New Year&#39s Eve.,2/7/2014,32.7938889,-79.8627778
1/1/2014 01:00,richmond (canada),bc,ca,fireball,300,5 minutes,UFO &quot;Fireball&quot; Sighting.,1/10/2014,45.666667,-72.15
1/1/2014 01:00,tucson,az,us,light,120,2 minutes,Bright dark orange colored light with varied speed and direction disappearing while traveling straight into the atmosphere.,1/10/2014,32.2216667,-110.9258333
1/1/2014 01:00,utah valley,ut,,changing,120,1-2 minutes,Line of multicolored lights.,1/10/2014,40.433284,-111.750763
1/1/2014 01:00,chandler,az,us,egg,1200,20 minutes,3 Orange &quot;orb&quot; shaped objects over Southwest Arizona&#44 followed by a fourth.,1/10/2014,33.3061111,-111.8405556
1/1/2014 01:00,american fork,ut,us,circle,600,10 minutes,3 round lights/balls seen&#44 flashing/moving/disappearing.,1/10/2014,40.3769444,-111.795
1/1/2014 01:00,boca raton,fl,us,circle,1800,30 minutes,I was driving home from a new year&#8217;s party&#44 about 1 am.,1/10/2014,26.3583333,-80.0833333
1/1/2014 01:00,albuquerque,nm,us,circle,10,10 seconds,Cylindrical shape with amber colored lights hovering near Route 66.,1/10/2014,35.0844444,-106.6505556
1/1/2014 01:30,lake elsinore,ca,us,fireball,10,10 seconds,Lake Elsinore ufo with blue thrusters.,1/24/2014,33.6680556,-117.3263889
1/1/2014 01:45,bradenton,fl,us,egg,600,10 mins.,One white/red light hovering over Bradenton&#44 FL. - posted 1/7/14.,1/10/2014,27.4986111,-82.575
1/1/2014 03:00,la mesa,ca,us,formation,900,15 minutes,Unidentified lights fly in and out of formation high in the night sky over east San Diego.,1/10/2014,32.7677778,-117.0222222
1/1/2014 17:00,placentia,ca,us,rectangle,60,1 minute,UFO descends and seems to land in golf course.,1/24/2014,33.8722222,-117.8694444
1/1/2014 17:15,gorham,me,us,fireball,120,2 minutes,Three orange/red fireball or flickering-type lights flying in a triangle formation across the sky and then out of sight.,1/10/2014,43.6794444,-70.4447222
1/1/2014 17:47,mentone,ca,us,formation,300,3-5 minutes,Orange light formations.,1/10/2014,34.0700000,-117.1336111
1/1/2014 17:50,gilroy,ca,us,formation,300,5 minutes,10-12 red dots flying in a bird like formation lower than the airplane above.  Each red dot began to disappear slowly one at a time.,1/10/2014,37.0058333,-121.5672222
1/1/2014 18:00,philadelphia,pa,us,light,180,2-3 minutes,3 red/orange flame-less lights seen hovering.,1/10/2014,39.9522222,-75.1641667
1/1/2014 18:30,woodridge,il,us,fireball,240,4 minutes,New Year&#39s day red scanning fireball.,1/10/2014,41.7469444,-88.0502778
1/1/2014 18:46,san diego,ca,us,unknown,45,45 seconds,Two dark objects less than two miles away&#44 moving east then separating and accelerating north at a miraculous rate of speed.,1/10/2014,32.7152778,-117.1563889
1/1/2014 19:00,brenda,az,us,circle,300,5 minutes,Five yellow orange objects flying at same altitude slightly above hills to south east of us.,1/10/2014,33.6797222,-113.9438889
1/1/2014 19:30,pittsburgh,pa,us,circle,900,15 minutes,Four orange-red lights over Pittsburgh&#44 PA dropping smaller orange lights.,1/10/2014,40.4405556,-79.9961111
1/1/2014 19:45,boston,ma,us,egg,900,15 minutes,Over Boston&#44 4 bright orange lights approach separately&#44 hover&#44 then recede to the South East.,1/10/2014,42.3583333,-71.0602778
1/1/2014 20:00,louisville,ky,us,sphere,300,5 minutes,Three large orange spheres traveling&#44 then turning independently of one another in night sky.,3/18/2014,38.2541667,-85.7594444
1/1/2014 20:15,pittsburgh,pa,us,fireball,120,2 minutes,4 ufos in pittsburgh pa area.,1/10/2014,40.4405556,-79.9961111
1/1/2014 20:30,hickory,nc,us,triangle,60,1 minute,(3) Yellowish/Orange spheres in the shape of a triangle.,1/16/2014,35.7330556,-81.3413889
1/1/2014 21:00,great falls,mt,us,sphere,30,30 seconds,Observes 2 orange spheres flying North over Great Falls Montana.,1/10/2014,47.5002778,-111.3
1/1/2014 21:30,spokane,wa,us,light,30,30 seconds,Orange/red light in the sky moving from east to west seen in southern sky gone 30 seconds after spotted.,1/10/2014,47.6588889,-117.425
1/1/2014 22:00,mount ephraim,nj,us,circle,600,10 minutes,Circular craft spotted in Mount Ephraim&#44 NJ.,1/10/2014,39.8783333,-75.0930556
1/1/2014 22:15,cincinnati,oh,us,circle,1800,2:30 minutes,Westside of Cincinnati&#44 bright red and blue lights making abrupt U turns and then dropping straight down from the sky&#44 quick as light,1/30/2014,39.1619444,-84.4569444
1/1/2014 22:30,liberty township,oh,,circle,1800,30 minutes,4-5 white lights circling over a band of trees.,1/10/2014,39.403986,-84.406761
1/1/2014 23:00,north myrtle beach,sc,us,fireball,3600,1 hour,Chinese lanterns with orange glow very popular in the Myrtle Beach area.,1/10/2014,33.8158333,-78.6802778
1/1/2014 23:00,tucson,az,us,light,300,5 minutes,Floating lights.,1/10/2014,32.2216667,-110.9258333
1/2/2014 00:00,auburn,wa,us,light,60,60 seconds,Lights in the sky.,1/10/2014,47.3075000,-122.2272222
1/2/2014 03:00,tarzana,ca,us,light,180,2-3 minutes,Bright green light hovering in the sky that suddenly descended rapidly in a zig zag formation until it dropped out of my line of sight.,1/10/2014,34.1733333,-118.5530556
1/2/2014 05:20,holywell (uk/wales),,gb,flash,5,5 seconds,Bright white flash over Holywell GB.,1/10/2014,53.283333,-3.25
1/2/2014 16:45,riverside,ca,us,sphere,600,10 minutes,I was on the corner of Blaine and Massachusetts Ave and myself and many others saw a red sphere flying westward high in the sky. It the,1/10/2014,33.9533333,-117.3952778
1/2/2014 17:30,austin,tx,us,circle,1800,30 minutes,Light on top left of moon&#44 followed by white lights and jets.,1/10/2014,30.2669444,-97.7427778
1/2/2014 18:30,tucson (north of),az,us,circle,1200,20 minutes,Red and orange orb over the foothills in Tucson&#44 Arizona.,1/10/2014,32.2216667,-110.9258333
1/2/2014 19:00,venice,fl,us,egg,1200,20 minutes,Floating&#44 glowing objects that at one point  formed a triangle.,2/7/2014,27.0994444,-82.4544444
1/2/2014 19:05,des moines,ia,us,unknown,7,5-7 seconds,In Des Moines Iowa white/red light&#44 shot up like a firework&#44 stopped&#44 then zoomed away.,1/10/2014,41.6005556,-93.6088889
1/2/2014 20:00,cuthbert,ga,us,light,300,5 minutes,Very bright &quot;Spotlight&quot; like light &amp; 2 very dim lights.,1/10/2014,31.7711111,-84.7894444
1/2/2014 20:00,yankton,sd,us,fireball,600,5-10 minutes,Orange fire ball that made a weird humming noise.,1/10/2014,42.8711111,-97.3969444
1/2/2014 21:30,perth (helena valley) (australia),,au,light,60,1 minute,Steady orange light in the sky sped up silently&#44 appeared to drop down from the trees stoped&#44 changed direction &amp; then moved away.,1/10/2014,-31.95224,115.861397
1/2/2014 21:51,lucknow (india),,,light,300,5 minutes,I was on the roof of my house for night sky photography and i saw a red dot moving in the sky &#44 my camera was on the self timer and it,1/10/2014,26.846511,80.946683
1/2/2014 22:00,cape coral,fl,us,light,300,5 minutes,Orange light hovering and then moving horizontal in Cape Coral&#44 Florida.,1/10/2014,26.5625000,-81.9497222
1/2/2014 22:15,austin,tx,us,light,60,1 minute,Reddish orange bright lights traveling very quickly  then disappearing.  Completely silent.,1/10/2014,30.2669444,-97.7427778
1/2/2014 23:00,berkeley,ca,us,light,7200,2 hours,THREE BRIGHT ORANGE LIGHTS OVER OAKLAND AND A SHOOTING STAR.,2/14/2014,37.8716667,-122.2716667
1/2/2014 23:45,rossville,il,us,light,600,10 minutes,3 orange lights seen hovering and then made a triangle formation.,1/10/2014,40.3791667,-87.6686111
1/3/2014 00:00,marina del rey,ca,us,light,180,3 minutes,Orange light coming my way very high&#44 made sudden moves to my left for awhile then dissapeared.,1/10/2014,33.9802778,-118.4508333
1/3/2014 01:00,aston,pa,,teardrop,240,4 minutes,Bright silver color teardrop shape the point was at  front.  There was no sound coming from it.,1/10/2014,39.864819,-75.425732
1/3/2014 02:45,morton,il,us,other,900,15 minutes,Id wokend up and stept out side. For a smoke. Thats win I seen sevral brite lites pirsing strayt up in pers. There were a lot of stars,1/10/2014,40.6127778,-89.4591667
1/3/2014 08:45,port st. lucie,fl,,unknown,360,6 minutes,20 some orange lights traveling across the sky. From west north-west to south east.,1/10/2014,27.273049,-80.358226
1/3/2014 13:00,morgan hill,ca,us,cigar,5,5 seconds,Strange noise&#44 observed a long&#44 spindle shaped&#44 silver cigar object with greenish exhaust.,1/10/2014,37.1305556,-121.6533333
1/3/2014 18:15,los alamos,nm,us,other,60,~1 minute,Lights in the sky above Santa Clara/San Ildefonso.,1/10/2014,35.8880556,-106.3063889
1/3/2014 18:56,huntington beach,ca,us,light,300,5 minutes,Single orange orb spotted in Huntington Beach&#44 CA.,1/10/2014,33.6602778,-117.9983333
1/3/2014 20:38,debrecen,,,oval,180,2-3 minutes,Pulsing shiny orange orb for about 2-3 minutes.,1/10/2014,47.531605,21.627312
1/3/2014 21:23,jenks,ok,us,circle,300,5 minutes,Fire-orange orb flying over Jenks faster than a jet and stopping before disappearing.,1/10/2014,36.0227778,-95.9680556
1/3/2014 22:00,st. louis,mo,us,chevron,240,4 minutes,5 boomerang lights over STL on 1/3/2014.,1/10/2014,38.6272222,-90.1977778
1/3/2014 23:40,simsbury,ct,us,triangle,300,5 minutes,A slow moving and hovering triangular shaped object with multiple bright white lights and one red light.,1/10/2014,41.8758333,-72.8016667
1/4/2014 01:00,lakewood,wa,us,cone,45,45 seconds,Cone shaped vertical flight path.,1/10/2014,47.1719444,-122.5172222
1/4/2014 01:55,altoona,pa,us,fireball,120,1-2 minutes,Fireball object falling from the sky.,1/10/2014,40.5186111,-78.395
1/4/2014 02:50,greensboro,nc,us,teardrop,180,3 minutes,9 Orange Globes traveling in a V formation&#44 not sound no blinking lights on a perfectly clear night.,1/10/2014,36.0725000,-79.7922222
1/4/2014 05:43,kill devil hills,nc,us,sphere,3,2-3 seconds,Orange orb the color of fire lights up&#44 expands in size&#44 then shrinks back to nothingness and disappears&#44 like an explosion in space.,1/10/2014,36.0305556,-75.6763889
1/4/2014 05:50,moreno valley,ca,us,fireball,180,2-3 minutes,Five orange &amp;quot;fireball&amp;quot; UFOs seen at 6:10pm Moreno Valley&#44 Ca.,1/10/2014,33.9375000,-117.2297222
1/4/2014 07:00,auburn,ca,us,formation,120,~2 minutes,4 UFO&#39s seen over Auburn heading West toward Sacramento.,1/10/2014,38.8966667,-121.0758333
1/4/2014 07:35,jackson,oh,us,fireball,5,3-5 seconds,Early morning fireball going east to west.,1/24/2014,39.0519444,-82.6366667
1/4/2014 11:00,new york city (brooklyn),ny,us,light,20,20 seconds,I was standing on my balcony smoking a cigarette and all of a sudden I saw a white object come out of the clouds. It glided from the di,1/10/2014,40.7141667,-74.0063889
1/4/2014 16:22,prineville,or,us,oval,2,seconds?,Took photos with new camera (FujiFilm HS50EXR)at close to full zoom (approx 800mm).  ((NUFORC Note:  Mourning dove in flight?  PD)),1/16/2014,44.3000000,-120.8333333
1/4/2014 16:35,ashburn,va,us,sphere,120,2 minutes,Highly reflective sphere hovers near chemtrail&#44 shrinks away rapidly&#44 section of chemtrail evaporates.,1/10/2014,39.0436111,-77.4877778
1/4/2014 17:00,crossville,tn,us,light,300,5 minutes,The first one I seen&#44 seemed to be a plane at first and I noticed it was traveling downward very quickly with a red stream of light&#44 I,1/10/2014,35.9488889,-85.0269444
1/4/2014 18:00,norfolk,va,us,circle,1800,30 minutes,~50 bright tiny light steadily moving to same direction NE to SW.,1/10/2014,36.8466667,-76.2855556
1/4/2014 18:00,marrero,la,us,light,2700,30-45 minutes,Two Blue Lights/ Unidentified Flying Objects seen in the sky over Marrero&#44 LA.,1/10/2014,29.8991667,-90.1002778
1/4/2014 18:10,campbell,oh,us,triangle,600,5-10 minutes,I was outside smokeing and looked up and seen 4 lights in the sky that were moving/huvering in the sky&#44 the 1 was on the left of the ot,1/10/2014,41.0783333,-80.5994444
1/4/2014 18:20,coventry (uk/england),,gb,oval,600,10 minutes,Amazing.,4/4/2014,52.416667,-1.55
1/4/2014 18:30,marshall,tx,us,sphere,10,10 seconds,5 distinct blue spheres flashed across the sky&#44 pausing and chaning direction slighly.,1/10/2014,32.5447222,-94.3672222
1/4/2014 18:30,oregon city,or,us,unknown,900,10-15 minutes,Saw what appeared to be a star&#44 but had some red and blue colors too&#44 and moves zig zag&#44 &amp; up&#44 and down.,1/10/2014,45.3575000,-122.6055556
1/4/2014 20:00,guatamala city (guatamala),,,light,1800,30 minutes,Some people saw a blue light falling and crashing on the ground&#44 later on three small lights floated over the ground.,1/10/2014,14.613333,-90.535278
1/4/2014 20:35,berea,oh,us,fireball,4,4 seconds,Red fire in the sky 1 or 2.,1/10/2014,41.3661111,-81.8544444
1/4/2014 21:00,blue hill,me,us,fireball,60,60 seconds,Appeared to be a green fireball with a tail shooting from the east towards the southwest into Blue Hill Bay.,1/10/2014,44.4138889,-68.5872222
1/4/2014 21:00,long beach,ca,us,light,420,7:00 minutes,LONG BEACH&#44 CA.. interacted with a UFO while stargazing and using a Green high output laser beam.,1/10/2014,33.7669444,-118.1883333
1/4/2014 21:00,portland,or,us,light,90,90 seconds,Slow moving red orb&#44 multidirectional.,1/10/2014,45.5236111,-122.675
1/4/2014 21:15,tacoma (port of),wa,us,other,1800,30 minutes,Strange crafts hovered formation lights not like aircraft or drones vedeo shows same.,1/10/2014,47.2530556,-122.4430556
1/4/2014 21:34,lynn,ma,us,circle,30,30 seconds,Three bright lights dove straight down only to disappear.,1/10/2014,42.4666667,-70.95
1/4/2014 22:08,phoenix,az,us,other,120,2 minutes,Large&#44 bright red ill defined light flying over then disappearing straight up.,1/10/2014,33.4483333,-112.0733333
1/4/2014 22:30,new york city (queens; flushing),ny,us,oval,120,2 minutes,Orange stingray-shaped object&#44 followed by 2 orange globes,1/10/2014,40.7141667,-74.0063889
1/4/2014 23:00,fort myers,fl,us,unknown,900,15 minutes,Red orbs launch one after another.,1/10/2014,26.6402778,-81.8725
1/4/2014 23:00,scottsdale,az,us,chevron,120,2 minutes,Orange glowing light over Scottsdale&#44 AZ.,1/10/2014,33.5091667,-111.8983333
1/4/2014 23:21,abuja (nigeria),,,triangle,600,5-10 minutes,Triangular black&#44 and silent object.,1/10/2014,9.066667,7.483333
1/4/2014 23:30,clermont,fl,us,triangle,15,15 seconds,Very low slow triangular craft with bright white lights.,1/10/2014,28.5491667,-81.7730556
1/4/2014 23:56,tuscaloosa,al,us,sphere,2,few seconds,Black orb spotted over Interstate 20/59.,1/10/2014,33.2097222,-87.5691667
1/5/2014 02:22,mansfield,oh,us,oval,180,3 minutes,Very bright&#44 reflective&#44 gold&#44 oval object low in the night sky.,1/10/2014,40.7583333,-82.5155556
1/5/2014 03:50,columbia,mo,us,light,25,25 seconds,MISSOURI INVESTIGATORS GROUP REPORT:  Director witnesses strange&#44 bright white light pass overhead.,1/16/2014,38.9516667,-92.3338889
1/5/2014 04:57,pleasanton,ca,us,oval,5,5 seconds,Yellowish oval like object descend from sky and land.,1/10/2014,37.6625000,-121.8736111
1/5/2014 05:30,lodi,ca,us,rectangle,12,12 seconds,Heard an aircraft heading northbound&#44 but&#44 noticed it was moving slow and low over the houses and did not sound like a helicopter or an,1/10/2014,38.1302778,-121.2713889
1/5/2014 12:00,spokane,wa,us,sphere,900,15 minutes,Shiny spherical object traveling across sky SE-NW direction&#44 hovers for 10 mins in NW&#44 then leaves in N-S direction.,1/24/2014,47.6588889,-117.425
1/5/2014 16:00,corona,ca,us,other,300,5 minutes,Flock of &quot;birds with headlights&quot; glide over valley in Southern California.,1/16/2014,33.8752778,-117.5655556
1/5/2014 18:45,east providence,ri,us,light,600,10 minutes,Orange lights formation speed fast low multiple ufo.,1/10/2014,41.8136111,-71.3705556
1/5/2014 19:00,salt lake city,ut,us,light,240,4 minutes,Red light not flashing moving slow and hovering then disappeared.,1/10/2014,40.7608333,-111.8902778
1/5/2014 22:30,santa rosa,ca,us,,600,10 minutes,My son was walking our dog when he came in yelling at us to come out. There were two bright orange to red lights heading south in the s,1/10/2014,38.4405556,-122.7133333
1/6/2014 00:00,bremen (germany),,de,,10800,3 hours,Invisible UFO spotted for three hours on radar by air control at Bremen Airport in Germany.,1/10/2014,50.716667,10.0
1/6/2014 03:45,jackson,mi,us,unknown,2400,40 minutes,Object originally thought to be airplane skipped half of the sky while surrounded my columns of light.,1/16/2014,42.2458333,-84.4013889
1/6/2014 07:40,chesapeake,va,us,disk,90,90 seconds,A large white disk shaped object hovering or floating  in sky  on a clear morning and then it vanished.,1/30/2014,36.8188889,-76.2752778
1/6/2014 09:00,morris,il,us,disk,240,4 minutes,Have photos&#44 clear day&#33&#33&#33,1/24/2014,41.3572222,-88.4211111
1/6/2014 14:00,clinchport,va,us,cylinder,30,30 seconds,Day time solid white cylinder craft 1300 ft away hovering over mountain top next to VA interstate 23.,1/10/2014,36.6769444,-82.7422222
1/6/2014 15:45,chalfont,pa,us,disk,60,1 minute,Disk seen following fighter jet and intercepted by second fighter jet.,2/7/2014,40.2883333,-75.2094444
1/6/2014 16:00,lansdale,pa,us,sphere,300,5 minutes,Silver sphere following plane two occasions in 5 minutes&#44 broad daylight&#44 obviously a structure of sort,1/10/2014,40.2413889,-75.2841667
1/6/2014 16:30,glenmoore,pa,us,formation,60,1 minute,Orange lights that flew in formation.,1/24/2014,40.0888889,-75.7722222
1/6/2014 19:00,georgetown,ky,us,circle,30,30 seconds,Two orange lights moving due south to due north combining as one then disappearing with no sound.,2/21/2014,38.2097222,-84.5588889
1/6/2014 19:00,san diego,ca,us,light,20,20 seconds,White round light&#44 high in northwest sky. Brighter than Jupiter. Slowly shrank to the size of satellite&#44 then moved to the northwest.,1/10/2014,32.7152778,-117.1563889
1/6/2014 19:00,lewisburg,wv,us,triangle,1200,20 minutes,((NUFORC Note:  Witness provides no information.  PD)),1/10/2014,37.8016667,-80.4458333
1/6/2014 20:30,cape coral,fl,us,light,180,3 minutes,Two lights moving rapidly in two circular patterns that intersected.,1/10/2014,26.5625000,-81.9497222
1/6/2014 22:00,morgan hill,ca,us,light,30,30 seconds,1/6/14&#44 22:00&#44 Morgan Hill&#44 CA&#44 sky lit up in a huge brilliant green light from the ground up&#44 behind possibly several miles of hills.,1/10/2014,37.1305556,-121.6533333
1/6/2014 22:15,danville,va,us,unknown,1200,15-20 minutes,White Lights no sound.,1/10/2014,36.5858333,-79.3952778
1/6/2014 22:18,san rafael,ca,us,light,180,0:03 minutes,8 bright&#44 star-like objects in formation in the night sky.,1/10/2014,37.9736111,-122.53
1/6/2014 22:30,san francisco,ca,us,changing,300,5 minutes,Bright orange ball over San Francisco changed shape and repeated.,1/10/2014,37.7750000,-122.4183333
1/6/2014 23:52,hartford,sd,us,other,420,7 minutes,Orange glowing planet sized object on horizon.,1/10/2014,43.6230556,-96.9422222
1/7/2014 00:00,mesa,az,us,unknown,120,2 minutes,Three lights orange in color and wide spread. lights went out one at a time and then were gone.,1/10/2014,33.4222222,-111.8219444
1/7/2014 07:10,savannah,ga,us,light,7,5-7 seconds,Light trail Near Crossroads Parkway and Jimmy DeLoach in Savannah&#44 GA.,1/10/2014,32.0833333,-81.1
1/7/2014 12:15,busan (south korea),,,disk,120,~1-2 minutes,A saucer spotted by an accidental photo.,1/10/2014,35.179554,129.075642
1/7/2014 16:30,monticello,ar,us,,120,several minutes,We saw some very unusual events in the sky that possibly involved normal aircraft and un-normal aircraft.,1/10/2014,33.6288889,-91.7908333
1/7/2014 19:00,mayville,wi,us,light,15,15 seconds,Row of 4 orange lights both moving and stationary.,1/10/2014,43.4941667,-88.5447222
1/7/2014 19:08,tucson,az,us,unknown,60,1 minute,4 Orange Lights Illuminating In Succession.,1/10/2014,32.2216667,-110.9258333
1/7/2014 19:55,san tan valley,az,,sphere,120,2 minutes,Orange glowing balls.  Flicker on and off. Huge in size. Moved great distance in seconds.,1/10/2014,33.170278,-111.572222
1/7/2014 20:00,princeton,wv,us,cylinder,3600,1 hour,UFO? over Princeton/Oakvale&#44 WV.,1/10/2014,37.3661111,-81.1027778
1/7/2014 20:00,san tan valley,az,,light,10,10 seconds,Three bright orange lites in succession in semi-circle repeate in southerly direction.,1/10/2014,33.170278,-111.572222
1/7/2014 21:40,missoula,mt,us,sphere,45,30-45 seconds,Powerful blue light flying around and changing color.,1/10/2014,46.8722222,-113.9930556
1/7/2014 21:56,san tan valley,az,,fireball,10,10 seconds,4 glowing orbs.,1/16/2014,33.170278,-111.572222
1/7/2014 21:58,hampton,va,us,light,120,2 minutes,Beams of light full length of the sky moving horizontal like a helicopter blade would.,1/10/2014,37.0297222,-76.3455556
1/7/2014 22:41,san rafael,ca,us,formation,300,5 minutes,Seven high altitude flashing lights over San Rafael.,1/10/2014,37.9736111,-122.53
1/7/2014 22:45,hattiesburg/columbia (between),ms,,circle,4,3-4 seconds,Neon green fast falling orb.,1/10/2014,31.334508,-89.302905
1/8/2014 15:00,columbus,oh,us,other,1800,30 minutes,Unusual cloud formation I had never seen before low in the sky south of the city of Columbus&#44 Ohio.,1/24/2014,39.9611111,-82.9988889
1/8/2014 17:00,rome,wi,us,light,300,5 minutes,White lights appearing&#44 disappearing and reappearing in Adams County&#44 Wisconson,1/10/2014,42.9802778,-88.6311111
1/8/2014 17:12,fond du lac,wi,us,formation,90,1.5 minutes,I was taking the dog out to the backyard. I was standing on the deck which faces due North while waiting for the dog to do his thing.,1/10/2014,43.7730556,-88.4469444
1/8/2014 17:30,green lake,wi,us,unknown,37800,1 1/2 hours+,3 fading orange lights and small&#44 white&#44 sparkler lights west/southwest of Green Lake&#44 WI.,1/16/2014,43.8441667,-88.96
1/8/2014 17:30,westfield,wi,us,light,300,5 minutes,Bright lights came out of no-where and were extremely loud.,1/10/2014,43.8836111,-89.4933333
1/8/2014 18:00,doylestown,wi,us,light,120,2 minutes,5 yellow lights flash in sky then disappear with 3 reappearing approx. 4.5 miles later moving NE.,1/16/2014,43.4277778,-89.15
1/8/2014 18:00,madison,wi,us,formation,120,2 minutes,3 orange glowing lights hovering moving slowly to the Northeast near Madison/ Deforest WI,1/10/2014,43.0730556,-89.4011111
1/8/2014 18:00,clinton,nj,us,cigar,120,2 minutes,Dark black&#44 cigar shape object&#44 only thing visible were several small lights...could not make out what it was,1/10/2014,40.6366667,-74.9102778
1/8/2014 18:20,hailey,id,us,sphere,300,3-5 minutes,Several orange spheres hovering over Hailey&#44 Idaho.,1/10/2014,43.5197222,-114.3144444
1/8/2014 20:00,kernesville,nc,,circle,120,2 minutes,I live in Kernersville&#44 NC. My friend and I saw  7 flame orange  lights in the sky.  They were moving very slowly.,1/10/2014,36.119859,-80.073653
1/8/2014 21:00,alta loma,ca,us,circle,300,5 minutes,3 Bright Orange Lights forming triangle.,1/10/2014,34.1222222,-117.5972222
1/8/2014 23:00,encinitas,ca,us,changing,1200,20 minutes,3 Lights over Encinitas.,1/24/2014,33.0369444,-117.2911111
1/9/2014 02:10,sanford,fl,us,unknown,900,15 minutes,Loud noise heard.,1/10/2014,28.8002778,-81.2733333
1/9/2014 07:25,oregon city,or,us,circle,5,5 seconds,White round light or object with a haze hovered for a short moment then moved quickly across sky at an arched angle&#44 then disappeared.,1/10/2014,45.3575000,-122.6055556
1/9/2014 07:45,north miami beach,fl,us,other,120,2 minutes,Red star streaked through the sky coming from the atlantic ocean  which is east towards the west then headed upwards in a nw direction,1/16/2014,25.9327778,-80.1627778
1/9/2014 08:10,tampa,fl,us,unknown,300,5 minutes,Weird brownish manmade looking object in sky.,1/10/2014,27.9472222,-82.4586111
1/9/2014 08:20,los angeles,ca,us,other,600,10 minutes,Hovering object that changed colors from green red and white..,1/10/2014,34.0522222,-118.2427778
1/9/2014 09:20,dumont dune national park,ca,,other,180,3 minutes,Glowing sphere with creatures face below it&#44 and blue six sided object in sky on California 127 at Dumont dune national park&#44 1/9/14 am,1/24/2014,36.778261,-119.417932
1/9/2014 11:20,fairborn,oh,us,fireball,120,2 minutes,Strange fireball floated into sky and shot up and dissapeard near wpafb in fairborn,1/10/2014,39.8208333,-84.0194444
1/9/2014 16:00,summerville,sc,us,sphere,300,5 minutes,I am submitting a photo that I took of this sighting&#44 orange color with blue like lines running through it like veins. When you are obs,1/10/2014,33.0183333,-80.1758333
1/9/2014 16:07,metairie,la,us,triangle,10,10 seconds,High flying jet that has no contrails.,1/10/2014,29.9838889,-90.1527778
1/9/2014 16:50,san pedro,ca,us,sphere,2,seconds,Approximately at 4:50 pm&#44 siting on my porch I observed a military fighter jet headed north west. Fixated on the speeding jet&#44 I notice,1/10/2014,33.7358333,-118.2913889
1/9/2014 18:44,bountiful,ut,us,diamond,30,30 seconds,I was watching a very bright light that was heading aprox 350 deg - almost a northern heading- the diamond shaped light vanished. Altit,1/10/2014,40.8894444,-111.88
1/9/2014 19:15,scottsdale,az,us,light,900,15 minutes,Three bright&#44 large&#44 orange orbs over Scottsdale.,1/16/2014,33.5091667,-111.8983333
1/9/2014 19:15,huntington beach,ca,us,,60,1 minute,Blue/White orb w/ spot light dances in the sky near street intersection Beach Blvd and Atlanta Ave..,1/16/2014,33.6602778,-117.9983333
1/9/2014 21:20,london (uk/england),,gb,changing,5,<5 seconds,Three points of light in the formation of a triangle moving very swiftly across the sky&#44 it rotated (or appeared to spin) once.,1/10/2014,51.514125,-0.093689
1/9/2014 21:50,phoenix,az,us,sphere,300,5 minutes,Second time spotting three orange fire orbs flying over Phoenix&#44 Az&#44 in formation.,1/10/2014,33.4483333,-112.0733333
1/10/2014 06:00,placentia,ca,us,rectangle,60,~1 minute,EXTRATERRESTRIAL MULTICOLOR SPACECRAFT OVER GOLF COURSE,1/16/2014,33.8722222,-117.8694444
1/10/2014 06:15,el paso,tx,us,circle,120,~2 minutes,Single round&#44 reddish yellowish&#44 greenish light in the sky which moved very rapidly and stood still&#44 then moved again then stood still,1/16/2014,31.7586111,-106.4863889
1/10/2014 06:30,coal creek,co,us,sphere,1200,20 minutes,Large&#44 yellowish white reflective sphere with no lights&#44 no sound&#44 no exhaust trail.,1/10/2014,38.3611111,-105.1477778
1/10/2014 09:57,hartford,ct,us,flash,120,2 minute,((HOAX??)) While i was watching a movie a white flash came from the sky after 1min another flash blinded me  it ended and left,2/14/2014,41.7636111,-72.6855556
1/10/2014 16:30,pendle (uk/england),,,light,900,15 minutes,A light hovered down the hill at a ridiculous speed.,1/16/2014,53.845,-2.204
1/10/2014 18:30,adams/friendship (in eastern sky),wi,,,120,few minutes,We  saw a line of lights in the sky&#44looking out our back door&#44&#44which faces east.I am guessing between 5;30&amp; 7;30pm&#44&#44&#44the evening of the,1/24/2014,43.970526,-89.816793
1/10/2014 20:00,knoxville,tn,us,light,1,1 second,Yellow Orange Light Shot Across Sky.,1/16/2014,35.9605556,-83.9208333
1/10/2014 20:00,yuma,az,us,unknown,120,2 minutes,Glowing streak of blue cloud passes quickly over the area in Yuma&#44 AZ.,1/16/2014,32.7252778,-114.6236111
1/10/2014 20:26,terrace (canada),bc,ca,unknown,20,20 seconds,In the west southwest skies over Terrace BC... very far away (so not certain of shape or size) a red and yellow light hovering at first,1/16/2014,54.5,-128.583333
1/10/2014 20:30,meredith,nh,us,fireball,300,3-5 minutes,Orange glowing orb slowly moving upward then disappeared.,1/16/2014,43.6575000,-71.5008333
1/10/2014 20:40,mercey hot springs/firebaugh,ca,,light,60,1 minute,Another bright white flash above Mercey Hot Springs&#33,1/16/2014,36.858838,-120.456007
1/10/2014 20:50,newport beach,ca,us,fireball,600,10 minutes,Hovering Red Orbs over the Newport Beach&#44 CA peninsula.,1/16/2014,33.6188889,-117.9280556
1/10/2014 21:15,lowell,mi,us,flash,1,1 second,Around 9:15pm last night&#44 in the sky NW of Lowell we witnessed two large flashes of red light that lit up a large&#44 lower portion of the,1/16/2014,42.9336111,-85.3419444
1/10/2014 22:58,kaneohe,hi,us,fireball,90,90 seconds,A silent red ball of light traveled off the pacific ocean from the east to the south below the clouds for about 90 seconds.,1/16/2014,21.4180556,-157.8036111
1/10/2014 23:50,napa,ca,us,circle,240,4 minutes,Bright orange circular object seen flying SE to NW for minutes before suddenly disappearing.,1/16/2014,38.2972222,-122.2844444
1/11/2014 00:00,mountlake terrace,wa,us,light,120,2 minutes,20 red/orange lights rising up in the sky for short time then disappeared.,1/16/2014,47.7883333,-122.3075
1/11/2014 01:45,ottawa (canada),on,ca,,7,7 seconds,Streaking yellowish greenish light from south 4 seconds with giant bright blue flash&#44 no sound.,1/24/2014,45.416667,-75.7
1/11/2014 03:00,bayville,nj,us,unknown,30,30 seconds,Strange loud booming noises unknown origin.,1/16/2014,39.9091667,-74.1552778
1/11/2014 04:00,oviedo (town in orlando),fl,us,light,1800,30 minutes,I was walking down the street to my neighborhood at 4 AM&#44 and hovering what appeared to be maybe 150 feet from the ground (MUCH closer,1/16/2014,28.6697222,-81.2083333
1/11/2014 15:30,new westminster (canada),bc,ca,circle,600,10 minutes,A flying cluster of white light orbs.,1/16/2014,49.216667,-122.916667
1/11/2014 16:00,roseville,mn,us,fireball,10,10 seconds,Green fireball fast moving.  Shooting down towards the ground.,1/16/2014,45.0061111,-93.1563889
1/11/2014 16:00,mahi mahiu (kenya),,,cone,720,12 minutes,Two dark objects following each other caught on photos and a clip.,1/16/2014,32.968388,-80.051162
1/11/2014 16:50,la junta,co,us,oval,120,2 minutes,Took picture of sunset&#44 and noticed a green/red oval object in the clouds.,1/16/2014,37.9850000,-103.5433333
1/11/2014 17:15,princeton,mn,us,triangle,10,10 seconds,Very large bright object flying horizontally across the sky.,1/16/2014,45.5700000,-93.5813889
1/11/2014 18:00,tucson,az,us,cigar,240,4:00,Silver or white cigar shaped aircraft with no wings.,1/16/2014,32.2216667,-110.9258333
1/11/2014 19:00,palmdale,ca,us,fireball,300,5 minutes,Fireball falling at slow speed then flew upwards at high rate of speed without turning around made no noise as it sped upwards.,1/16/2014,34.5794444,-118.1155556
1/11/2014 19:11,ihtiman (bulgaria),,,fireball,120,2 minutes,A strange red light.,1/16/2014,42.438242,23.816172
1/11/2014 19:20,deerfield beach,fl,us,unknown,180,3 minutes,Four orange spheres in sky over Deerfield Beach&#44 Florida&#44 1/11/14.,1/16/2014,26.3180556,-80.1
1/11/2014 19:20,boca raton,fl,us,light,300,5 minutes,Four traveling orange lights in formation slowly dimmed to nothing.,1/16/2014,26.3583333,-80.0833333
1/11/2014 19:30,pueblo,co,us,sphere,1800,30 minutes,Gold or orange sphere&#39s appeared over Pueblo.,1/16/2014,38.2544444,-104.6086111
1/11/2014 19:55,chesapeake city,md,us,circle,300,5 minutes,Many white circular activity light above the clouds as if playing a game of tag.,1/16/2014,39.5308333,-75.8077778
1/11/2014 20:00,falmouth,ky,us,circle,120,2 minutes,Large orange ball moves and hovers above house.-January 11&#44 2014.,1/16/2014,38.6766667,-84.3302778
1/11/2014 21:05,palo alto,ca,us,formation,10,10 seconds,Boomerang Type Craft with Lights in Formation Seen Flying over Palo Alto&#44 Ca  on Saturday Night.,1/16/2014,37.4419444,-122.1419444
1/11/2014 22:25,new york city (queens),ny,us,light,60,1 minutes,((POSSIBLE HOAX??))  2 balls of light in sky no sound military chasing it.,1/16/2014,40.7141667,-74.0063889
1/11/2014 22:40,davie,fl,us,fireball,600,10 minutes,We were looking at the sky&#44 and from the southwest saw an orange ball of light flying toward us. As it passed overhead&#44 there was no so,1/16/2014,26.0625000,-80.2333333
1/12/2014 00:05,northport,ny,us,diamond,30,30 seconds,Orange orb leading d diamond shaped glowing orange with green white lights in middle heading N over Eaton&#39s Neck&#44 NY.,1/16/2014,40.9008333,-73.3436111
1/12/2014 00:56,lawton,ok,us,teardrop,5,5 seconds,Very light blue flame heading towards the ground.,1/16/2014,34.6086111,-98.39
1/12/2014 10:00,northern cambria,pa,us,circle,180,2-3 minutes,Object with light increasing directly up.,1/16/2014,40.6591667,-78.7819444
1/12/2014 11:00,fort collins,mi,,sphere,60,1 minute,Red Light Balls hovering Then Fade Out,2/14/2014,40.688295,-105.094018
1/12/2014 11:00,chambersburg,pa,us,cigar,900,10-15 minutes,2 white cigar-shaped objects with a central black band traveling east to west.,1/24/2014,39.9375000,-77.6613889
1/12/2014 13:35,huntsville,al,us,disk,480,8 minutes,Daylight-Saucer with cloud and two other lights.,1/16/2014,34.7302778,-86.5861111
1/12/2014 13:35,marion,sc,us,disk,180,3 minutes,Black saucer over Marion&#44 SC.,1/16/2014,34.1780556,-79.4008333
1/12/2014 15:30,melbourne,fl,us,cylinder,900,15 minutes,Five photos were taken.   ((NUFORC Note:  Possible bird in flight&#44 we believe?  Either a seagull&#44 or a pelican&#44 we suspect.  PD)),1/16/2014,28.0833333,-80.6083333
1/12/2014 17:00,inverness,ms,us,cigar,900,15 minutes,500 foot wide silver object moved over 2 1000 foot radio towers no sound then disapiered.,1/16/2014,33.3536111,-90.5925
1/12/2014 17:10,ellington,ct,us,fireball,5,5 seconds,Fireball seen in CT sky.,1/16/2014,41.9038889,-72.4702778
1/12/2014 17:15,georgetown,ky,us,light,2700,45 minutes,Orange streaks of light over Georgetown.,1/16/2014,38.2097222,-84.5588889
1/12/2014 17:23,mukilteo/everett,wa,,unknown,180,3 minutes,Weird high pitch noises pulsing&#44 weird BOOM out of nowhere. Previous sighting: electronic BOOM noise&#44 ripples in the clouds.,1/16/2014,47.908825,-122.268112
1/12/2014 17:45,river vale,nj,us,egg,4,4 seconds,BRILLIANT WHITE OBJECT MOVED ACROSS EASTERN SKY&#44 LEFT NO TRAIL ARCED DOWNWARD NEVER LOOSING ITS BRILLIANCE AND DISAPPEARED BEHIND TREES,1/16/2014,40.9952778,-74.0125
1/12/2014 18:00,burton on trent  (staffordshire) (uk/england),,,light,180,3 minutes,Red/green lights moving at various speeds.,1/16/2014,52.814028,-1.637136
1/12/2014 18:30,palatka,fl,us,fireball,420,7 minutes,Three fireballs moving slowly across sky.,1/16/2014,29.6483333,-81.6377778
1/12/2014 19:30,rochester,ny,us,light,120,2 minutes,At approximately 7:30 pm &#44 my wife and I witnessed an orange glow in the southwest sky. The glow became larger as it got closer.  There,1/16/2014,43.1547222,-77.6158333
1/12/2014 19:45,new sharon,me,us,circle,1200,20 minutes,Very bright white circle... occasionally small explosions of orange that seemed to propel the vessel.,1/16/2014,44.6388889,-70.0161111
1/12/2014 20:15,cleveland,oh,us,light,240,4 minutes,15 balls of light moving quite fast in a line towards Lake Erie.,1/16/2014,41.4994444,-81.6955556
1/12/2014 20:15,hartwell,ga,us,triangle,10,10 seconds,PILOT REPORT:  3 dim orange lights in triangle formation moving at high speed before separating in different directions.,1/16/2014,34.3527778,-82.9322222
1/12/2014 21:05,inchelium,wa,us,triangle,120,2 minutes,Triangle Flying over Columbia River Colville Reservation.,1/16/2014,48.2969444,-118.1955556
1/12/2014 22:30,annapolis valley (canada),ns,,flash,180,3 minutes,I was driving down the annapolis valley in Nova Scotia Canada and suddenly the whole sky was filled with multiple-colored flashes...lik,1/24/2014,44.916667,-65.166667
1/12/2014 22:35,dallas,ga,us,oval,120,2 minutes,Beautiful lighted egg shape floated over my head&#33,1/16/2014,33.9236111,-84.8408333
1/12/2014 23:30,haledon,nj,us,circle,900,10-15 minutes,Bright red/orange circular object in the SE sky.,1/16/2014,40.9355556,-74.1866667
1/12/2014 23:30,newington (canada),on,,teardrop,180,3 minutes,Gold shimmering lights.  Stationary until I was watching&#44 then moved quickly.,1/16/2014,45.117371,-75.012052
1/12/2014 23:31,new sharon,me,us,oval,3600,>60 minutes,One object&#44 very bright&#44 white&#44 oblong&#44 dark spot in the center. about half the size of a typical full moon&#44 and brighter than a typica,1/16/2014,44.6388889,-70.0161111
1/13/2014 01:00,watchung (watchung mountain; viewed from),nj,us,light,1,1 second,Big ball of bright yellow light.,1/16/2014,40.6377778,-74.4513889
1/13/2014 03:10,agawam,ma,us,light,1200,20 minutes,UFO&#44 Agawam MA 1/13/14&#44 white&#44 blue&#44 orange lights&#44 slow moving&#44 silent&#44 impossible aviation moves&#44 3:10 am.,1/24/2014,42.0694444,-72.6152778
1/13/2014 03:15,southwick,ma,us,light,1200,15-20 minutes,Bright &quot;twinkling&quot; light appeared to be stationary and faded significantly during ~20 minutes of observation.,1/16/2014,42.0547222,-72.7708333
1/13/2014 06:00,hugoton,ks,us,flash,3600,1 hour,((HOAX??))  Way bright light that does not move at all.  Not even a bit.,2/14/2014,37.1752778,-101.3491667
1/13/2014 06:47,san antonio,tx,us,fireball,3,3 seconds,Two fast moving fireballs spotted over Medical Drive&#44 San Antonio.,1/16/2014,29.4238889,-98.4933333
1/13/2014 13:45,carson,ca,us,sphere,60,1 minute,Silver hovering sphrere over Carson&#44 CA.,1/16/2014,33.8313889,-118.2811111
1/13/2014 17:50,lorton,va,us,circle,2,2 seconds,Bright blue large fast moving circular object.,1/16/2014,38.7041667,-77.2280556
1/13/2014 18:00,sioux city,ia,us,circle,120,2 minutes,4 bright orange balls of light moving silently through the sky - about the height a helicopter would fly.,1/24/2014,42.5000000,-96.4
1/13/2014 18:00,willow springs,nc,us,chevron,600,10 minutes,3 objects in formation looking stationary with no noise.  At first looked like three bright lights.  Then they appeared in a chevron sh,1/16/2014,35.5955556,-78.7316667
1/13/2014 18:00,henderson/thronton/brighton,co,,fireball,1500,25 minutes,These lights were not normal aircraft.,1/16/2014,39.935301,-104.87497
1/13/2014 18:30,boone,ia,us,triangle,240,4 minutes,Saw in S sky over town bright light thought was air craft lights turnd to blue and red dimmed.  stoped at trafic light observed c,1/16/2014,42.0597222,-93.88
1/13/2014 18:45,greensboro,nc,us,teardrop,180,3 minutes,Silent&#44 bright white falling comet like object/light. Still then veering to the left.,1/16/2014,36.0725000,-79.7922222
1/13/2014 21:00,clarksburg,md,us,cigar,4,3-4 seconds,A ball of orange light appeared in the night sky&#44 may be a possible meteor.,1/16/2014,39.2386111,-77.2797222
1/13/2014 21:00,erzincan central (turkey),,,light,10800,3 hours,Hundreds ufos flew from very high altitude one after another and perhaps more i have not seen.,1/30/2014,39.75,39.5
1/13/2014 22:22,holts summit,mo,us,changing,300,5 minutes (both),Its Baaaaaack &#33&#33&#33&#33  5th year same time same place.,1/16/2014,38.6402778,-92.1222222
1/14/2014 00:35,myrtle beach,sc,us,circle,5,5 seconds,Strobing orange circular lights in a line two sets of three lights over the ocean.,1/16/2014,33.6888889,-78.8869444
1/14/2014 02:00,flossmoor,il,us,triangle,3600,30-60 minutes,Triangular Shaped UFOs with Lights Silently Hovering in the Western Sky in Illinois.,1/16/2014,41.5427778,-87.6847222
1/14/2014 05:15,angleton,tx,us,flash,3,1-3 seconds,Impact flash in brazoria county texas.,1/24/2014,29.1691667,-95.4316667
1/14/2014 06:00,palestine,tx,us,triangle,300,5 minutes,Long triangular&#44 wing shaped&#44 black aircraft&#44 with two down facing&#44 constant green lights and one flashing red light.,1/16/2014,31.7619444,-95.6305556
1/14/2014 06:30,yates center,ks,us,light,600,10 minutes,Lights moving in a distinct pattern.,1/24/2014,37.8811111,-95.7330556
1/14/2014 08:50,mumbai (india),,,light,60,1 minutes,3 orange lights leading to same place. one was very large and golden lights flashing.,1/16/2014,19.075984,72.877656
1/14/2014 17:45,west kelowna (canada),bc,ca,other,900,15 minutes,Large light bigger than fullmoon moving in a circular and oval orbit in the sky above cloud line.,1/16/2014,49.9,-119.483333
1/14/2014 18:30,surfside beach,sc,us,unknown,30,30 seconds,While standing in  my garage looked toward the ocean and quite a distance off and far above the ocean I seen one round orange light. A,1/16/2014,33.6058333,-78.9733333
1/14/2014 18:45,fredonia,ks,us,light,240,4 minutes,Three people see orange lights in the western sky at night. One dims and re-lights in a horizontal row. 50 second video taken.,1/24/2014,37.5338889,-95.8263889
1/14/2014 18:45,eureka,ks,us,other,240,4 minutes,Three vertical yellowish-orange balls lit up the Eastern night sky.,1/16/2014,37.8238889,-96.2888889
1/14/2014 19:35,roanoke,va,us,light,120,~2 minutes,Bright&#44 reddish-orange light moving in the night sky above Roanoke&#44 Va.,1/16/2014,37.2708333,-79.9416667
1/14/2014 20:50,waimanalo,hi,us,fireball,5,5 seconds,I saw an orange fireball with flames trailing as it shot diagonally across the sky and disappeared behind the nearby mountain range.,1/16/2014,21.3500000,-157.7208333
1/14/2014 21:27,seattle (shoreline district),wa,us,light,45,45 seconds,Bright light&#44 zig zagging eastward&#44 visible from 98133.,1/16/2014,47.6063889,-122.3308333
1/14/2014 22:40,kimberly,id,us,fireball,300,3-5 minutes,Several Fireball follwed by three red triangles.,1/16/2014,42.5338889,-114.3638889
1/14/2014 23:00,talkitna,ak,,,3,3 seconds,This is one you can see for yourself. TV show on IDHD Channel. &quot;Ice Cold Killers&quot; Season 2 episode2 &amp;quot;fear Thy Neighbor&amp;q,1/16/2014,62.320905,-150.106622
1/15/2014 03:30,paia,hi,us,sphere,120,2 minutes,On 1/15/14 I Saw a golden sphere shaped object hovering over the water on the North Shore at 3:30am.,1/24/2014,20.9033333,-156.3694444
1/15/2014 05:30,el dorado hills,ca,us,light,1800,30 minutes,Bright blinking light very far away that moved right to left and vertically with 2 smaller object&#39s leaving it.,1/16/2014,38.6858333,-121.0811111
1/15/2014 12:00,tallahassee,fl,us,teardrop,600,5-10 minutes,Multiple roundish or teardrop shape orbs seen during the daytime.,1/16/2014,30.4380556,-84.2808333
1/15/2014 13:00,pleasant grove,ar,us,disk,15,10-15 seconds,The object was stationary&#44 color of shiny brass&#44 Gave me the feeling of being &#39huge&#44 and far away&#39.,2/14/2014,35.8163889,-91.9091667
1/15/2014 14:30,dana point,ca,us,sphere,1200,20 minutes,Black object flew around coastal cloud&#44 then flew into the cloud&#44 cloud dissipated 20 min. later.,4/11/2014,33.4669444,-117.6972222
1/15/2014 14:30,spearsville,la,us,triangle,2700,45 minutes,12-15 lights&#44 rounded corner triangle shape&#44 hovered &amp; tilted fluidly&#44 disappeared after 45 min&#44 complete silence.,1/24/2014,32.9358333,-92.605
1/15/2014 17:45,mountain brook,al,us,light,120,1-2 minutes,Pulsing light hovering&#44 stationary and moving slowly over busy rush hour traffic - NOT a helicopter.,1/16/2014,33.5008333,-86.7522222
1/15/2014 19:00,garner,nc,us,disk,300,5 minutes,7 Red Lights.,1/24/2014,35.7111111,-78.6144444
1/15/2014 19:30,birmingham,al,us,formation,60,~1 minutes,Red and white lights appearing to be connected.  Large string of lights.,1/16/2014,33.5205556,-86.8025
1/15/2014 19:30,kihei,hi,us,circle,240,4 minutes,An orange hovering light moving very slowly&#44 occasionally hovering&#44 then moving north very fast.,1/16/2014,20.7850000,-156.4655556
1/15/2014 19:45,st. stephen,sc,us,sphere,720,12 minutes,Either 1 large craft or 6 objects&#44 4 escorting 2.,1/24/2014,33.4041667,-79.9219444
1/15/2014 20:00,williamston,sc,us,formation,180,3 minutes,A linear pattern of 12 reddish lights moving to the South.,1/16/2014,34.6183333,-82.4780556
1/15/2014 20:00,lilburn,ga,us,changing,3600,~1 hour,Red and white/yellow stars formed a large&#44 moving cluster then formed into a straight line moving northwest in the sky.,1/16/2014,33.8900000,-84.1430556
1/15/2014 20:00,conyers,ga,us,formation,600,10 minutes,Massive/Quiet red and white light craft.,1/16/2014,33.6675000,-84.0177778
1/15/2014 20:10,campbell,ca,us,fireball,240,4 minutes,Single fireball spotted over Silicon Valley.,1/16/2014,37.2872222,-121.9488889
1/15/2014 20:15,loganville,ga,us,light,120,2 minutes,5 to 7 aircraft in tight&#44 yet scattered formation&#44 with flashing red light&#44 no noise.,1/16/2014,33.8388889,-83.9008333
1/15/2014 20:30,dacula/auburn,ga,,unknown,420,7 minutes,Long string of red pulsating sequential lights moving in a northerly direction.,1/16/2014,34.001631,-83.887097
1/15/2014 20:30,covington,ga,us,light,300,5 minutes,Weird.,1/16/2014,33.5966667,-83.8602778
1/15/2014 20:45,crystal city,tx,us,flash,5,5 seconds,Extremely bright bursts of white light moving at high speed approx. 200 feet above the ground.,1/16/2014,28.6772222,-99.8277778
1/15/2014 21:00,peachtree city,ga,us,sphere,20,20 seconds,3 lights in a straight line&#44 2 red and one white,1/16/2014,33.3966667,-84.5958333
1/15/2014 21:00,peachtree city,ga,us,sphere,20,20 seconds,3 lights in a straight line&#44 2 red and one white.,4/4/2014,33.3966667,-84.5958333
1/15/2014 21:10,north sutton,nh,us,unknown,600,10 minutes,Three unidentified smoke trails followed by super fast super high jets.,1/16/2014,43.3638889,-71.94
1/15/2014 21:30,deleon springs,fl,,circle,300,5 minutes,Tons of white floating objects in formation&#44 during night.,1/16/2014,29.119427,-81.351454
1/15/2014 23:59,crystal spring (near),tx,,oval,60,1 minute,Bright light in the sky&#44 lasted one minute&#44 moving very fast.,1/24/2014,29.643162,-98.477151
1/15/2014 23:59,kealia,hi,us,fireball,1200,20 minutes,Fireball w- chinese laturns and parade of triangles.,1/24/2014,22.1019444,-159.3086111
1/16/2014 01:00,shoreline,wa,us,other,240,4:00,Their was no visual site due to very heavy fog.  I believe this fog is on purpose to hide how huge these crafts are.,1/24/2014,47.7558333,-122.3402778
1/16/2014 08:30,edmonton (canada),ab,ca,formation,1200,20 minutes,Metallic cloud cloaked object made up of three orb shaped components hovering in sky in broad daylight by international airport.,3/27/2014,53.55,-113.5
1/16/2014 17:30,belgrade,mt,us,unknown,60,1 minutes,Low frequentcy sound vibration...like a horn.,1/24/2014,45.7761111,-111.1761111
1/16/2014 18:00,canon city,co,us,sphere,20,20 seconds,Bright&#44 round object flashed brilliant white before climbing at a high rate of speed.,1/24/2014,38.4000000,-105.2166667
1/16/2014 18:15,mcallen,tx,us,teardrop,300,5 minutes,My mother and I were traveling South on Biccentennial&#44 when we got to the stoplight of Dove and Bicentennial at approximately 18:15.  W,1/24/2014,26.2030556,-98.2297222
1/16/2014 18:27,birmingham,al,us,formation,40,40 seconds,Rotating lights moving rapidly across the sky.,1/16/2014,33.5205556,-86.8025
1/16/2014 18:30,cary,nc,us,triangle,600,10 minutes,6 Triangular hovering craft with synchronized lights.,1/24/2014,35.7913889,-78.7813889
1/16/2014 18:40,corinth,ny,us,light,300,5 minutes,My wife noticed several yellow/orange lights in a west/south west direction.  After stopping the car&#44 while using power lines as a refe,1/24/2014,43.2444444,-73.8327778
1/16/2014 19:00,forsyth,mo,us,fireball,180,3 minute,Fire in the sky.,1/24/2014,36.6850000,-93.1197222
1/16/2014 19:00,north chesterfield,va,,formation,300,5 minutes,String of 5 red lights heading east.,1/24/2014,37.458993,-77.468513
1/16/2014 19:00,glenpool,ok,us,rectangle,120,1-2 minutes,Several different colored lights in the sky.,1/24/2014,35.9552778,-96.0086111
1/16/2014 20:00,buckhead,ga,us,triangle,3600,1 hour,I was driving in Atlanta and saw a triangular craft with five lights circling the sky; lasted about 1 hour&#44 was no plane I&#39ve ever seen,2/14/2014,33.5683333,-83.3625
1/16/2014 20:00,shartlesville,pa,us,unknown,120,2 minutes,Red&#44 blue&#44 green flashing lights with intermittent bright white pinpoint lights quickly and randomly flashing.,1/24/2014,40.5127778,-76.1047222
1/16/2014 21:25,loxahatchee,fl,us,sphere,420,5-7 minutes,Round pure white glowing light moving back and forth up and down with speed and movements not capable by any helicopter or plane.,1/24/2014,26.6833333,-80.28
1/16/2014 22:00,clermont,fl,us,unknown,10,0:10,Flyby of an unknown object creating a very low frequency humming / pulsating sound.,1/24/2014,28.5491667,-81.7730556
1/16/2014 22:00,menifee,ca,us,sphere,180,3 minutes,Sphere light ball dimming out then pulsating an tranforming to plane lights an moving north west when noticed.,1/24/2014,33.7283333,-117.1455556
1/16/2014 23:00,covington,ky,us,circle,2,a few seconds,Saw 5-6 pulsing lights in a circular shape slowly moving across the sky low to the ground.,1/24/2014,39.0836111,-84.5086111
1/16/2014 23:00,miami,fl,us,other,30,0.30,Red round light&#44 southeast of Kendall&#44 saw it for 30 seconds it just vanish in front of My eyes&#44 at 11:07 pm&#44 for sure not an airplane&#44,1/24/2014,25.7738889,-80.1938889
1/16/2014 23:16,coldwater,ms,us,circle,240,4 minutes,White&#44 ball-like objects hovering in sky. Glowing and shining after a few minutes&#44 flew away slowly.,1/24/2014,34.6916667,-89.9772222
1/17/2014 02:18,las vegas,nv,us,light,180,3 minutes,Blue strobe light floating in red rock around 02:17am.,1/24/2014,36.1750000,-115.1363889
1/17/2014 02:45,orlando,fl,us,cylinder,300,5 minutes,Blue cylinder over east Orlando erratic flying/flashing inject.,1/24/2014,28.5380556,-81.3794444
1/17/2014 05:00,sweet lake,la,us,sphere,300,5 minutes,Bright &quot;Star-Shaped&quot; object&#44 possibly out of the Atmosphere&#44 that could move up&#44 down and sideways&#44 and Fade in and Out on B,3/18/2014,29.9838889,-93.1291667
1/17/2014 06:45,maricopa,az,us,sphere,1800,30 minutes,2 bright pulsating stars and three orange orbs.,1/24/2014,33.0580556,-112.0469444
1/17/2014 08:30,grand junction,co,us,light,1800,30 minutes,Four red lights slowly moving&#44 high above.,1/24/2014,39.0638889,-108.55
1/17/2014 11:00,desert center,ca,us,sphere,300,5 minutes,Mystery objects seen over Desert Center Ca and disappeared thru a puff of smoke.,1/24/2014,33.7125000,-115.4013889
1/17/2014 12:20,glen burnie,md,us,other,300,5 minutes,Boomerang  shaped moving very fast&#44 descending &#44 from northwest to east then back west and then I  lost sight of the object seem to be,1/24/2014,39.1625000,-76.625
1/17/2014 13:00,conroe,tx,us,sphere,7,7 seconds,Riding bus looked out window and saw a silver sphere.,1/24/2014,30.3116667,-95.4558333
1/17/2014 13:00,glenpool,ok,us,unknown,300,5:00,Two streams flying into each other.,1/24/2014,35.9552778,-96.0086111
1/17/2014 17:00,harrisburg,pa,us,,300,5 minutes,2 fireballs in sky.,1/24/2014,40.2736111,-76.8847222
1/17/2014 17:10,elkford (canada),bc,,light,10,10 second,As the sun was setting about 4 finger widths above the sun in the west/southwest was what looked like a really bright star even though,1/24/2014,50.024565,-114.92353
1/17/2014 18:00,broomfield,co,us,other,600,10 minutes,Three strange lights in triangular formation&#44 one brighter than any aircraft I have ever seen; one passed overhead.,3/18/2014,39.9205556,-105.0861111
1/17/2014 18:30,lacey,wa,us,formation,120,~2 minutes,Red and blue light formation seen by 6 people streak from north to south&#44 then back north&#44 hover&#44 then dropped slowly beyond tree line.,1/24/2014,47.0344444,-122.8219444
1/17/2014 19:30,quartzite,az,,light,240,3-4 minutes,Orange light rising above eastern horizon then traveling easterly out of sight.  ((NUFORC Note:  Witness is pilot.  PD)),1/24/2014,33.663914,-114.229949
1/17/2014 19:35,santa ana,ca,us,light,120,2 minutes,Yellow light in the flight path of a 747 that quickly vanished as the plane got it it&#39s sight  over garden grove ca.,1/24/2014,33.7455556,-117.8669444
1/17/2014 21:00,raleigh,nc,us,circle,180,3 minutes,Orange light over North Raleigh.,1/24/2014,35.7719444,-78.6388889
1/17/2014 21:15,muscat (sultanate of oman),,,cigar,15,10-15 seconds,Individually technologically explainable&#44 except speed and collectively improbable.,1/24/2014,23.61,58.54
1/17/2014 22:30,naples,fl,us,light,900,10-15 minutes,Orange and white lights traveling across the sky.,1/24/2014,26.1416667,-81.795
1/17/2014 22:35,troy,oh,us,sphere,180,3 minutes,A sphere with several red and white lights&#44 hovering at first and then flew out of sight at lightning speed&#33,1/24/2014,40.0394444,-84.2033333
1/18/2014 00:00,paterson,nj,us,light,480,8 minutes,Brilliant light coming and going Roaring noise.,1/24/2014,40.9166667,-74.1722222
1/18/2014 00:10,wichita,ks,us,light,5400,90 minutes,Bright white lights moving around south west Wichita just above cloud cover.,1/24/2014,37.6922222,-97.3372222
1/18/2014 03:10,denver,co,us,light,120,2 minutes,Green light moving erratically over Stapleton at 3 am.,1/24/2014,39.7391667,-104.9841667
1/18/2014 08:45,waddell,az,us,light,120,2 minutes,Approximately 12 red lights staying in formation over white tank mountains around 8:45 p.m. Dissapearing one by one.,1/24/2014,33.6113889,-112.4263889
1/18/2014 09:06,st. george,ut,us,sphere,60,1 minute,High speed&#33 Very colorful&#44 chased by military helicopters a few minutes later.,1/24/2014,37.1041667,-113.5833333
1/18/2014 10:00,miami beach,fl,us,other,600,10 minutes,I was walking in side my house with my girlfriend when we decided to go outside. so we go&#44walking as normal when we see this bright lik,1/24/2014,25.7902778,-80.1302778
1/18/2014 18:00,tujunga,ca,us,sphere,300,5 minutes,Saw a reddish light move up from the little tujunga mountain on the south side. The object went up and down very quickly in a perfect a,1/24/2014,34.2522222,-118.2875
1/18/2014 18:15,huntersville,nc,us,light,3,3 seconds (twice),Strange light similar to meteorite suddenly turns in perpendicular direction.  Seen again moving across sky and moving up.,1/24/2014,35.4105556,-80.8430556
1/18/2014 18:20,durham,nc,us,triangle,900,15 minutes,7-8 orange objects forming a triangle and V shape. Stationary position for several minutes.,1/24/2014,35.9938889,-78.8988889
1/18/2014 19:15,carteret,nj,us,triangle,120,1-2 minutes,Black Triangle craft&#44 very large&#44 whites lights on end only.  Helo on its tale&#44 then craft disappeared.,1/24/2014,40.5772222,-74.2286111
1/18/2014 20:00,willits,ca,us,fireball,480,8 minutes,Fireballs in the sky over Willits&#44 Ca.,1/24/2014,39.4097222,-123.3544444
1/18/2014 20:00,clarksville,tn,us,other,600,10 minutes,A camouflage cloaking invisibility technology.,4/18/2014,36.5297222,-87.3594444
1/18/2014 20:00,jackson,la,us,sphere,900,15 minutes,18 orange lights following same path making no noise and fading out after passing overhead.,1/24/2014,30.8372222,-91.2175
1/18/2014 20:00,tampa,fl,us,sphere,900,15 minutes,Orange lights in the sky.,1/24/2014,27.9472222,-82.4586111
1/18/2014 20:30,saco,me,us,fireball,60,1 minute,Not a jet it stop in dead in the sky.,1/24/2014,43.5008333,-70.4433333
1/18/2014 20:30,roseburg,or,us,oval,7200,2 hours,Slow moving orbs seen slow.,1/24/2014,43.2166667,-123.3405556
1/18/2014 20:30,huntington,wv,us,fireball,180,3 minutes,Was driving home from store and looked up and saw an orange fire ball in the sky at first i thought it was a meteor but then it hover a,1/24/2014,38.4191667,-82.4452778
1/18/2014 20:45,columbia,md,us,cigar,900,15 minutes,There ufos spotted over Columbia&#44 MD.,1/24/2014,39.2402778,-76.8397222
1/18/2014 20:45,phoenix,az,us,fireball,300,5 minutes,Orange&#44 flickering and flaming object moving on a very rapid and straight path heading southeast across at about constant speed.,1/24/2014,33.4483333,-112.0733333
1/18/2014 20:45,portland,or,us,,60,1 minute,I was sitting in my family room watching the tv. We have  high  ceilings in the family room with windows and can see the sky. All of a,1/24/2014,45.5236111,-122.675
1/18/2014 21:00,royal palm beach,fl,us,other,3600,30-60 minutes,About 9:pm on January 18th I was comming home from shoppping and I saw an unusual sight in the west of royal palm beach florida a row o,1/24/2014,26.7080556,-80.2308333
1/18/2014 21:00,easton,md,us,light,10,10 seconds,A big flash of white light by the moon followed by a very bright light that skipped across the sky then faded to black.,1/24/2014,38.7741667,-76.0766667
1/18/2014 21:00,lake havasu city,az,us,fireball,300,5 minutes,Three bright orange balls moving silently at high speed.,1/24/2014,34.4838889,-114.3216667
1/18/2014 21:30,lake havasu city,az,us,fireball,300,5 minutes,3 bright orange&#44 low flying objects at high speed.,1/24/2014,34.4838889,-114.3216667
1/18/2014 21:50,lake tawakoni,tx,,fireball,120,2 minutes,Five Round&#44 bright&#44 low flying objects flying silently from north to south 8 to 10 seconds apart at constant speed.,1/24/2014,32.858805,-95.95154
1/18/2014 22:05,boca raton,fl,us,formation,600,10 minutes,Saw 3 reddish orbs in a V formation&#44 and 3 minutes afterwards saw 3 more orbs.,1/24/2014,26.3583333,-80.0833333
1/18/2014 22:30,kirksville,mo,us,circle,900,15 minutes,Late very clear night &#44circular object &#44red lights fading on and off &#44huge&#44silent moving extremely slow&#33,1/30/2014,40.1947222,-92.5830556
1/18/2014 22:30,westminster,ca,us,light,60,1 minute,Single craft bright red and green lights moving very fast and changing directions often.  NOT helicopter RC?  Too fast I say?,1/24/2014,33.7591667,-118.0058333
1/18/2014 23:00,pawtucket,ri,us,triangle,180,3 minutes,Saw a triangle ufo hovering over the the street. Started to come straight towards us and then took a sharp turn to the right and flew a,1/24/2014,41.8786111,-71.3830556
1/18/2014 23:39,tacoma,wa,us,light,20,20 seconds,Slow blinking white light hovering over port area then vanished.,1/24/2014,47.2530556,-122.4430556
1/19/2014 02:30,southfield,mi,us,disk,900,hours,Circular with colors.,1/24/2014,42.4733333,-83.2219444
1/19/2014 04:47,nixon,tx,us,circle,1620,27 minutes,Flashing object in Nixon&#44 TX.,1/24/2014,29.2672222,-97.7641667
1/19/2014 07:00,camp verde,az,us,fireball,7200,2 hours,Very scary.,1/24/2014,34.5636111,-111.8536111
1/19/2014 12:00,dania beach,fl,us,rectangle,300,5 minutes,Huge silver/gold object by I-95 in broad daylight.,1/24/2014,26.0519444,-80.1441667
1/19/2014 17:05,honolulu,hi,us,cigar,10,10 seconds or less,See above.  ((NUFORC Note:  The photos of interest show tiny&#44 blurry objects.  We suspect they are birds in flight.  PD)),1/24/2014,21.3069444,-157.8583333
1/19/2014 17:30,pleasanton,ca,us,fireball,2,2 seconds,Firework like spark close to ground with an oddly high and long Chem trail behind it.,1/24/2014,37.6625000,-121.8736111
1/19/2014 18:00,sandy,ut,,sphere,600,10 minutes,3 to 4 red spheres at a time&#44 flying&#44 hovering&#44 and disappearing over 10 minute span.,1/24/2014,40.5725,-111.859722
1/19/2014 18:20,harvey,la,us,fireball,300,5 minutes,Red fireball observed above Harvey&#44 La. moving from North to South direction.,1/24/2014,29.9033333,-90.0772222
1/19/2014 18:36,wellington,fl,us,light,240,4 minutes,Circular&#44 very strong white light.,1/24/2014,26.6583333,-80.2416667
1/19/2014 18:50,welland (canada),on,ca,other,30,30 seconds,An unexplained hman shaped being in my yard.,1/24/2014,42.983333,-79.25
1/19/2014 19:00,vail,co,us,flash,5,4-5 seconds,White flash came out of complete darkness in between a cluster of stars.,1/24/2014,39.6402778,-106.3736111
1/19/2014 19:17,carlsbad,ca,us,circle,300,5 minutes,Fireball in the sky over Carlsbad State Beach&#44 California.,1/24/2014,33.1580556,-117.3497222
1/19/2014 19:20,prescott valley,az,us,circle,4,4 seconds,A circular object with a trail of white light heading north. It looked as if the object left in a sideways u-parabola&#44 disappearing.,1/24/2014,34.6100000,-112.315
1/19/2014 19:30,freehold,nj,us,circle,420,7 minutes,Hovering light object underneath Orion&#39s Belt.,1/24/2014,40.2600000,-74.2741667
1/19/2014 19:45,las cruces,nm,us,light,300,5 minutes,Saw a large fast moving red and yellow light that came to a complete stop and slowly faded. Then one more right after the first one.,1/24/2014,32.3122222,-106.7777778
1/19/2014 20:15,prescott,az,us,fireball,10,5-10 seconds,Unidentified object object obscures radio.,1/24/2014,34.5400000,-112.4677778
1/19/2014 21:00,elsmere,de,us,light,3,2-3 seconds,Greenish light splits into 2 with a yellowish glow.,1/24/2014,39.7391667,-75.5983333
1/19/2014 21:15,delanco,nj,us,light,240,4 minutes,Formation of silent orange lights moving across clear sky.,1/24/2014,40.0505556,-74.9538889
1/19/2014 23:00,raleigh,nc,us,circle,45,45 seconds,Tonight me and my wife saw a Orangish Red Circle that emerge from over our house&#33 We watched it for about 45 seconds and it appeared to,1/24/2014,35.7719444,-78.6388889
1/19/2014 23:00,riverview,fl,us,other,600,5-10 minutes,Dark undulating bubble or cloud with two hoola hoop type rings on either side standing vertical; muti-colored spinning lights.,1/24/2014,27.8658333,-82.3266667
1/19/2014 23:00,wake forest,nc,us,formation,120,2 minutes,Line of 8 big lights.,1/24/2014,35.9797222,-78.51
1/19/2014 23:00,portland,or,us,light,3,3 seconds,An odd white light streaked briefly overhead and then disappeared. Looked like it was on a diagonal path. Lasted only 3 seconds&#44 but wa,1/24/2014,45.5236111,-122.675
1/20/2014 03:23,spokane,wa,us,triangle,10,10 seconds,What was that?,1/24/2014,47.6588889,-117.425
1/20/2014 14:45,atlanta,ga,us,cylinder,180,3 minutes,Two Bright Metallic Objects.,1/24/2014,33.7488889,-84.3880556
1/20/2014 16:40,el cajon,ca,us,other,1200,20 minutes,two friends in daytime view multiple statiopnary lights for more than 15 min in El Cajon&#44 Califoria.,1/24/2014,32.7947222,-116.9616667
1/20/2014 17:10,appleton,wi,us,light,300,5 minutes,At first looked like set of car headlights soaring in the sky&#44  Thought it was a plane at first. Got closer and the lights faded out..,1/24/2014,44.2619444,-88.4152778
1/20/2014 17:24,old hickory,tn,us,light,10,10 seconds,RED BALL OF LIGHT FOLLOWING AN AIRCRAFT.,1/24/2014,36.2597222,-86.6477778
1/20/2014 17:30,lake havasu,az,,teardrop,600,10 minutes,3 red/orange flying in formation.,1/24/2014,34.46735,-114.37574
1/20/2014 18:00,litchfield park,az,us,oval,180,3 minutes,3 floating orange orbs in a V formation lasting about 3 minutes then diassapeard one after the other.,1/24/2014,33.4933333,-112.3572222
1/20/2014 18:00,marshall,ok,us,other,60,<1 minute,Humanoid figure sited crossing road near Marshall&#44 Oklahoma.,1/24/2014,36.1538889,-97.6252778
1/20/2014 19:15,jupiter,fl,us,changing,420,5-7 minutes,Rising fireball&#44 turned into rounded square with single rotating light around perimeter that started clockwise then reversed rotation.,1/24/2014,26.9338889,-80.0944444
1/20/2014 19:30,madison,al,us,triangle,60,1 minute,3 bright orange lights along side a bright white light.,1/24/2014,34.6991667,-86.7483333
1/20/2014 19:45,morganton,nc,us,circle,300,5 minutes,11 orange burning circles floating in sky&#33,1/24/2014,35.7452778,-81.685
1/20/2014 20:00,san antonio,tx,us,fireball,120,1-2 minutes,2 fireball like objects over Southern Bexar County in evening sky 1-20-2014.,1/24/2014,29.4238889,-98.4933333
1/20/2014 20:00,wappapello,mo,us,light,10800,~3+ hours,Bright orange Lights/Fireballs.,3/18/2014,36.9355556,-90.2708333
1/20/2014 20:05,san antonio,tx,us,fireball,120,1-2 minutes,2 fireball like objects over Southern Bexar County in evening sky 1-20-2014.,1/24/2014,29.4238889,-98.4933333
1/20/2014 20:46,a55 northope (uk/north wales),,,unknown,180,3 minutes,Red&#44 green and white lights seen on craft over A55 road in North Wales.,1/24/2014,53.213147,-3.133831
1/20/2014 21:00,westport,ma,,changing,900,15 minutes,Huge object comes out of water at horseneck beach then disappears orange circle.,1/24/2014,41.638889,-71.05
1/20/2014 21:13,carnation,wa,us,triangle,15,15 seconds,An unusual triangular craft passed over our house tonight&#44 traveling S.W.&#44 low &amp; silent.,1/24/2014,47.6480556,-121.9127778
1/20/2014 22:30,sacramento,ca,us,triangle,120,2 minutes,Sacramento red and white lights in sky.,1/24/2014,38.5816667,-121.4933333
1/21/2014 00:45,luna,nm,us,fireball,10,10 seconds,Orange fireball.,1/24/2014,33.8188889,-108.9538889
1/21/2014 01:00,ducannon,pa,,,20,15-20 seconds,Duncannon&#44 PA&#44 alien contact  15 to 20 seconds small stature grey thin matalic.,4/24/2014,40.398142,-77.023033
1/21/2014 05:30,lynnwood,wa,us,fireball,3,3 seconds,Lynnwood&#44 WA meteor 1/21/14 5:30 am?,1/24/2014,47.8211111,-122.3138889
1/21/2014 06:00,thousand oaks,ca,us,light,20,20 seconds,Unidentified&#44 red and blue lights seen moving together at a high rate of speed and in random directions in Thousand Oaks&#44 CA.,1/24/2014,34.1705556,-118.8366667
1/21/2014 06:50,montana city,mt,us,changing,180,3 minutes,A bright&#44 white&#44 scintillating&#44 pencil-shaped light over the Elkhorn Mountains observed for 3 minutes.,1/30/2014,46.5377778,-111.9319444
1/21/2014 07:15,morrisville,pa,us,light,300,5 minutes,Many unexplained orange lights shooting across the sky.,1/24/2014,40.2113889,-74.7883333
1/21/2014 08:30,park city,ut,us,egg,45,45 seconds,Large white egg shaped light with another white light in center and two white lines (like chemtrails) on either side.,1/24/2014,40.6461111,-111.4972222
1/21/2014 17:30,milo,mo,us,sphere,600,<10 minutes,Twin tails&#44 changed trajectory.,1/24/2014,37.7561111,-94.3058333
1/21/2014 19:30,mariposa,ca,us,circle,600,10 minutes,Two mulicolored Ufo&#39s over Madera&#44 California.,1/24/2014,37.4850000,-119.9652778
1/21/2014 19:30,dahlonega,ga,us,circle,15,15 seconds,Bright orange sphere.  ((NUFORC Note:  Source remains anonymous.  Possible hoax&#44 we wonder?  PD)),1/24/2014,34.5325000,-83.985
1/21/2014 20:00,oakley,ca,us,disk,120,2 minutes,Craft over Oakley.,1/24/2014,37.9975000,-121.7113889
1/21/2014 20:15,richards bay (kwazulu-natal)(south africa),yt,,sphere,300,5 minutes,Orb appears from cloud&#44 disappears in plain sight and is &quot;hunted&quot; by helicopter.,1/24/2014,-28.780728,32.038286
1/21/2014 20:25,congress,az,us,light,30,30 seconds,We looked up in the northwest sky and saw a series of horizontal yellow/orange lights moving closer in the sky. There seemed to be from,1/24/2014,34.1625000,-112.85
1/21/2014 21:00,westport,ma,,changing,900,15 minutes,((HOAX??))  Huge object comes out of water at horseneck beach then disappears orange circle.,1/24/2014,41.638889,-71.05
1/21/2014 21:45,vacaville,ca,us,light,120,2 minutes,I saw 5 red lights hoovering/moving slowly in the sky that I&#39m convinced were not normal air crafts.,1/24/2014,38.3566667,-121.9866667
1/21/2014 22:30,hampton bays,ny,us,light,900,~15 minutes,2 others and myself witnessed lights in the southern sky over a 15 minute period. All traveling along the same in the sky. They seemed,2/7/2014,40.8688889,-72.5180556
1/21/2014 23:00,overton,nv,us,triangle,600,10 minutes,Very bright horseshoe shape orange lights all of a sudden appear and disappear just as quick.,2/7/2014,36.5433333,-114.4461111
1/22/2014 06:20,welland (canada),on,ca,,600,10 minutes,Multiple vertical columns of light over South-Southwestern sky prior to sunrise in Welland&#44 Ontario.,1/24/2014,42.983333,-79.25
1/22/2014 08:45,lake panasoffkee,fl,us,sphere,25,15-25 seconds,Dull white sphere moving slowly but steadily through a clear morning sky.  Walked away for about 10 sec.  When I returned it was gone.,1/24/2014,28.7555556,-82.095
1/22/2014 10:00,sunrise,fl,us,other,2,2 seconds,Loud boom followed by the ground shaking.,3/18/2014,26.1336111,-80.1133333
1/22/2014 10:30,miramar,fl,us,,2,2 seconds,VERY LOUD BOOM AND EARTH SHAKE IN SOUTH FLORIDA TODAY.,1/24/2014,25.9869444,-80.2325
1/22/2014 15:30,suwanee,ga,us,rectangle,120,2 minutes,Square and flat with red and green lights-made a buzzing sound-hovered and took off over treetops.,1/24/2014,34.0513889,-84.0713889
1/22/2014 16:45,ashburn,va,us,light,30,30 seconds,Highly reflective object over Ashburn&#44 VA&#44 not bird&#44 balloon&#44 aircraft.,1/24/2014,39.0436111,-77.4877778
1/22/2014 17:15,marysville,ca,us,circle,3600,1 hour,Seven balls of light towards Sacramento&#44 California.,1/24/2014,39.1458333,-121.5902778
1/22/2014 18:00,scottsdale,az,us,light,1800,30+ minutes,2 Red Orbs hovering over Scottsdale.,1/24/2014,33.5091667,-111.8983333
1/22/2014 18:30,longview,wa,us,light,10,10 seconds,Zigzaging bright white light leaving atmosphere quickly.,1/30/2014,46.1383333,-122.9369444
1/22/2014 19:00,maricopa,az,us,,1800,20-30 minutes,2 stationary circular orange lights in the sky for 20-30 minutes.,1/24/2014,33.0580556,-112.0469444
1/22/2014 19:00,micco,fl,us,circle,20,20 seconds,Falling circles dance together then leave.,1/24/2014,27.8802778,-80.5005556
1/22/2014 19:37,new braunfels,tx,us,teardrop,5,5 seconds,Some sort of craft blew up probably when entering earth&#39s atmosphere.,1/24/2014,29.7027778,-98.1241667
1/22/2014 20:00,houston,tx,us,circle,15,15 seconds,Small white ball over Houston.,1/30/2014,29.7630556,-95.3630556
1/22/2014 20:00,northern europe (undisclosed city),,,disk,60,40-60 seconds,Saucer disc&#44 saw it twice report around three weeks late,2/21/2014,62.278648,12.340171
1/22/2014 21:15,hialeah,fl,us,light,60,1 minute,Red light in NW sky appeared to be star but moving Southward and vanished.  Not a Shooting star.,1/24/2014,25.8572222,-80.2783333
1/22/2014 21:35,eureka,ca,us,light,90,1-1.5 minutes,White light being followed by red blinking light&#44 moving slowly across sky.,1/24/2014,40.8022222,-124.1625
1/23/2014 00:05,tabernacle,nj,us,unknown,240,3-4 minutes,Object in eastern sky in south New Jersey.,1/24/2014,39.8438889,-74.7105556
1/23/2014 02:00,huntsville,al,us,triangle,120,2 minutes,Large Aircraft int he shape of a triangle&#44 with each end having 1 red light.  Flying very low&#44 and very fast.  Extremely loud.,1/24/2014,34.7302778,-86.5861111
1/23/2014 07:40,walnut creek/concord,ca,,unknown,60,60 seconds,Three irregular shapes flying in close proximity in Walnut Creek&#44 Ca.,1/30/2014,37.941299,-122.048773
1/23/2014 08:30,dehradun (india),,,diamond,5,5 seconds,A blinking diamond.,1/24/2014,30.316495,78.032192
1/23/2014 12:00,raleigh,nc,us,disk,3,3 seconds,4 Clear Disk-shaped UFOs over Raleigh&#44 N.C..,1/30/2014,35.7719444,-78.6388889
1/23/2014 13:00,hudson,nh,us,circle,1200,~20 minutes,Hudson&#44 NH&#44 ufo sighting.,1/24/2014,42.7647222,-71.4402778
1/23/2014 15:15,greenfield,pa,us,light,180,3 minutes,((NUFORC Note:  Source of report provides no information.  PD)),1/24/2014,40.4213889,-79.9436111
1/23/2014 17:30,arbuckle,ca,us,sphere,1200,20 minutes,Quiet floating balls. Reflecting sun light.,1/30/2014,39.0175000,-122.0566667
1/23/2014 17:35,farmington,ut,us,oval,240,3-4 minutes,Bright orange object&#44 seemed to be heading north/west&#44 moving fast.,1/24/2014,40.9805556,-111.8866667
1/23/2014 19:00,ellisville,ms,us,triangle,120,2 minutes,7 objects flying in a straight line all 7 had 3 triangular red lights.,2/21/2014,31.6038889,-89.1955556
1/23/2014 19:00,saginaw,mi,us,triangle,120,1-2 minutes,There were at least 5 lights and 1 to 2 red beacon lights. No sound&#44 no movement.,1/24/2014,43.4194444,-83.9508333
1/23/2014 19:30,maricopa,az,us,unknown,1200,20 minutes,2 unmoving orange lights seen SW of Maricopa&#44 Az.,1/24/2014,33.0580556,-112.0469444
1/23/2014 20:14,rutland,ma,us,oval,240,4 minutes,Oval aircraft 100 yards away flying over tree line then flying away Green flashing lights on bottom.,1/24/2014,42.3694444,-71.9486111
1/23/2014 20:15,lacrosse,fl,,oval,600,10 minutes,Craft with 3 big bright amber lights moving slow toward house over hay field. Craft went over tree line then moved closer to ground. No,1/24/2014,29.843298,-82.404833
1/23/2014 20:30,phoenix,az,us,circle,1500,25 minutes,Looking from North Valley which seemed in direction of Deer Vally Airport  I saw 3 flashing balls appeared to have multiple colors and,1/24/2014,33.4483333,-112.0733333
1/23/2014 20:50,salome,az,us,light,120,2 minutes,4 pairs of lights in Sky in path of Helicopter.,2/14/2014,33.7811111,-113.6138889
1/23/2014 21:35,oviedo,fl,us,fireball,180,3 minutes,Bright orb that accelerated very quickly.,1/24/2014,28.6697222,-81.2083333
1/23/2014 21:45,vero beach,fl,us,fireball,60,1 minute,Looks like a fire ball.,1/24/2014,27.6383333,-80.3975
1/23/2014 22:00,clackamas,or,us,light,300,5 minutes,Small lights in the sky over Clackamas&#44 Oregon.,1/30/2014,45.4077778,-122.5691667
1/23/2014 22:00,conyers,ga,us,sphere,5,5 seconds,Small red light floating in my yard.,1/24/2014,33.6675000,-84.0177778
1/23/2014 22:00,miami,fl,us,fireball,60,1+ minute,Red &quot;plasma&quot; ball of light traveling south to north over the Everglades&#44 complete with tail/corona.,1/30/2014,25.7738889,-80.1938889
1/23/2014 22:34,ste-brigitte de laval (canada),qc,,sphere,3600,1 hour,Hovering orbs inside my bedroom and alien figures outside my window. Possible abduction.,1/30/2014,47.002378,-71.194212
1/23/2014 23:00,fort washakie,wy,us,light,3600,1 hour,Observed a still standing white silver red light blinking.,1/30/2014,43.0063889,-108.8816667
1/23/2014 23:40,noblesville,in,us,triangle,300,5 minutes,Large Dark Triangular shape with lights.,1/24/2014,40.0455556,-86.0086111
1/24/2014 06:50,maumee,oh,us,circle,120,2 minutes,Bright white light floating across sky.  It did not blink and there was no noise.,1/30/2014,41.5627778,-83.6538889
1/24/2014 17:15,spokane valley,wa,us,light,300,5 minutes,My young son and I were at 16th and Bowdish.  We saw what we thought was a small plane perhaps losing an engine.  It lit up then we saw,1/30/2014,47.6733333,-117.2383333
1/24/2014 17:48,campbell,ca,us,other,30,30+ seconds,Blue U-Shaped UFO moving extremely fast with a lot of activity after.,1/30/2014,37.2872222,-121.9488889
1/24/2014 18:00,kelso,wa,us,sphere,300,5 minutes,Driving to Kelso Exit 39 thought it was paper lanterns in the sky. Orange in color.  Moving higher in elevation growing brighter and th,1/30/2014,46.1469444,-122.9072222
1/24/2014 18:00,mclean,va,us,formation,120,2 minutes,I saw an object with 7 or more lights that was traveling very fast in an area near Washington&#44 D.C.,1/30/2014,38.9341667,-77.1777778
1/24/2014 18:55,lewisville,tx,us,light,10,~10 seconds,UFO with bright white tail almost crashed on highway but vanished just before impact.,1/30/2014,33.0461111,-96.9938889
1/24/2014 19:00,seattle,wa,us,light,3600,1 hour,Object appeared near the Orion; cycling through a number of colors.  ((NUFORC Note:  Probably Sirius?  PD)),1/30/2014,47.6063889,-122.3308333
1/24/2014 19:00,stilwell,ok,us,light,60,<1 minute,Light hovers then shoots straight up out of sight.,1/30/2014,35.8144444,-94.6283333
1/24/2014 19:23,san marcos,tx,us,disk,720,12 minutes,I was heading toward downtown from my house on the southwest side of town. I was heading east northeast depending on the direction of t,1/30/2014,29.8830556,-97.9411111
1/24/2014 19:30,little river,sc,us,light,300,5 minutes,Blinking/pulsing Lights.,1/30/2014,33.8730556,-78.6144444
1/24/2014 19:45,hernando,ms,us,circle,30,30 seconds,I saw 3 oval bright white object go up and leave our atmosphere. They left a trail like shootings stars going up instead of down. It wa,1/30/2014,34.8238889,-89.9936111
1/24/2014 19:55,honolulu,hi,us,light,300,5 minutes,Small red light&#44 first stationery then in fast motion over Waikiki observed from Ala Wai harbor.,1/30/2014,21.3069444,-157.8583333
1/24/2014 20:00,lubbock,tx,us,light,180,3 minutes,Star that moves&#44 fades&#44 changes into multiple lights.,2/7/2014,33.5777778,-101.8547222
1/24/2014 20:04,caldwell,id,us,formation,180,3 minutes,Orange orbs traveling over Marsing&#44 below inversion layer,1/30/2014,43.6630556,-116.6863889
1/24/2014 20:05,kelso,wa,us,formation,240,3-4 minutes,12-14 bright orange lights that formed a line and than around each other and than left in a hurry.,1/30/2014,46.1469444,-122.9072222
1/24/2014 21:20,hillsboro,or,us,formation,120,2 minutes,Red stationary lights in sky.,1/30/2014,45.5230556,-122.9886111
1/24/2014 21:30,seattle,wa,us,light,60,60 seconds,Spot of light zig-zagging over Seattle.,1/30/2014,47.6063889,-122.3308333
1/24/2014 21:40,highlands ranch,co,us,fireball,300,5 minutes,Fire orange orbs.,1/30/2014,39.5538889,-104.9688889
1/24/2014 21:45,beebe,ar,us,triangle,900,15 minutes,Triangle UFO observed for 15 min over Arkansas  interstate 67 just past mile marker 29.,1/30/2014,35.0705556,-91.8794444
1/24/2014 22:05,levittown,ny,us,unknown,20,<20 seconds,Three sets of lights seen over nassau county New York.,1/30/2014,40.7258333,-73.5147222
1/24/2014 23:12,frankfort,ky,us,triangle,300,5 minutes,Triangular shaped object with red and blue lights hovering.,1/30/2014,38.2008333,-84.8733333
1/24/2014 23:59,portland,or,us,unknown,3600,1 hour,Red flashing dots witnessed by 5 people 2 in Hillsboro. lasted over a hour and is still going on as if 2:03 AM..,1/30/2014,45.5236111,-122.675
1/25/2014 01:30,salem,or,us,flash,5400,1.5 hours,Brilliant colorful flashing lights moving in a very unconventional way @ 1:30am on January 25&#44 2014 in Salem Oregon.,1/30/2014,44.9430556,-123.0338889
1/25/2014 01:30,novi,mi,us,light,10,5-10 seconds,Bright green light illuminates room at night.,1/30/2014,42.4805556,-83.4755556
1/25/2014 02:10,desert hot springs,ca,us,diamond,1800,30 minutes,Scared you can tell those things are not planes realize we are not alone.,1/30/2014,33.9611111,-116.5008333
1/25/2014 02:30,centennial,co,us,triangle,1800,30+ minutes,3 residents of Centennial Colorado massive UFO due west of Centennal hoving bright multi color  lights howing for over 30 minute plus.,1/30/2014,39.5791667,-104.8763889
1/25/2014 03:00,hermon,me,us,triangle,120,2+ minutes,VERY clear&#44 close triangle object with pulsing lights and no sound directly overhead just 100 yards away.,1/30/2014,44.8100000,-68.9138889
1/25/2014 07:27,raleigh,nc,us,diamond,2,1-2 seconds,Diamond-shaped object glowing in morning sky.,2/7/2014,35.7719444,-78.6388889
1/25/2014 18:50,santa cruz,ca,us,light,120,2 minutes,I watched three red/orange glowing lights in the sky in a triangle formation.  Then one faded and disappeared.  The the other two separ,1/30/2014,36.9741667,-122.0297222
1/25/2014 19:30,kent,wa,us,changing,300,5 minutes,Reddish orange glowing lights in an orb shape.,1/30/2014,47.3811111,-122.2336111
1/25/2014 20:00,kennesaw,ga,us,unknown,20,20 seconds,Single blinking red light&#44 then green light&#44 then disappeared completely.,1/30/2014,34.0233333,-84.6155556
1/25/2014 20:30,elgini,il,,formation,600,10 minutes,Red flying objects.,1/30/2014,42.037379,-88.336105
1/25/2014 20:35,cape coral,fl,us,light,600,5-10 minutes,Adult male describes witnessing an estimated 20-25 orange lights move across the night sky.,1/30/2014,26.5625000,-81.9497222
1/25/2014 20:45,palm beach gardens,fl,us,circle,360,6 minutes,6 Orange Orbs Travel West to East Across the Northern Sky in South Florida.,1/30/2014,26.8230556,-80.1388889
1/25/2014 20:45,irvine,ca,us,triangle,40,35-40 seconds,Large Triangular translucent craft flew over the house while star gazing the width of 2 full moons.  I was 100% silent with no lights.,1/30/2014,33.6694444,-117.8222222
1/25/2014 20:48,whitefield,nh,us,sphere,300,3-5 minutes,3 Orange spheres seen moving very slow in formation.,1/30/2014,44.3730556,-71.6105556
1/25/2014 20:53,belgrade,mt,us,diamond,60,1 minute,Diamond shaped object with multiple lights spies over belgrade montana.,1/30/2014,45.7761111,-111.1761111
1/25/2014 21:45,hollister,ca,us,sphere,180,3 minutes,Four randum colored lights that change colors with randum movements East of Hollister&#44 CA.,1/30/2014,36.8525000,-121.4005556
1/25/2014 22:00,tewksbury,ma,us,light,4,00:04,Green and red falling light over walgreens resembling a flare,1/30/2014,42.6105556,-71.2347222
1/25/2014 22:00,vero beach,fl,us,other,2400,40 minutes,The speed that it went from a stand still to moving was fast.  We did not here any engine sounds.,1/30/2014,27.6383333,-80.3975
1/25/2014 22:00,vero beach,fl,us,other,60,1 minute,Red/orange object.,2/7/2014,27.6383333,-80.3975
1/25/2014 22:02,diamond lake,or,us,light,180,3 minutes,Big red orb flying over Diamond Lake&#44 Or.,1/30/2014,43.1788889,-122.1377778
1/25/2014 22:20,lakeland,fl,us,diamond,180,3:00,Silent&#44 strong pyramid form with goldfish orangish lights.,1/30/2014,28.0391667,-81.95
1/25/2014 22:30,whitefish,mt,us,fireball,300,5 minutes,Orange ball of light over Whitefish&#44 MT.,1/30/2014,48.4111111,-114.3366667
1/25/2014 22:45,calgary (canada),ab,ca,changing,300,5 minutes,Orange (and blue tinged) objects observed over south west Calgary.,1/30/2014,51.083333,-114.083333
1/25/2014 22:45,sunrise,fl,us,fireball,180,3 minutes,Orange fireballs spotted over South Florida&#44 traveling alongside a plane.,1/30/2014,26.1336111,-80.1133333
1/25/2014 22:51,jupiter,fl,us,sphere,80,1:20,Low altitude red glowing sphere&#44 500 feet overhead.,1/30/2014,26.9338889,-80.0944444
1/25/2014 23:00,barbados,,,circle,60,1 minute,6 bright circular lights in the sky&#44 traveling in a &quot;V&quot; shape / Triangular Shape at a fast Speed.  All the Lights were evenly.,1/30/2014,13.193887,-59.543198
1/25/2014 23:30,washburn,nd,us,light,600,10 minutes,Slow Moving Light West of Washburn.,1/30/2014,47.2891667,-101.0286111
1/26/2014 00:00,wetumpka,al,us,sphere,60,hours,Saw at first one pulsating sphere.  Then a secound.  Both moving very aratctly.,1/30/2014,32.5436111,-86.2119444
1/26/2014 02:20,lynden,wa,us,flash,3,3 seconds,Bright downward Strike of light of green and red. Beautiful and vivid .,1/30/2014,48.9466667,-122.4508333
1/26/2014 04:00,kill devil hills,nc,us,triangle,600,10 minutes,Multiple sightings over the past few weeks on the OBX.,1/30/2014,36.0305556,-75.6763889
1/26/2014 09:30,kearny,nj,us,oval,70,70 seconds,Red light emitting from a cloud,1/30/2014,40.7683333,-74.1458333
1/26/2014 17:15,kelso,wa,us,fireball,180,2-3 minutes,Saw a fireball flyover Longview WA from Kelso WA.,1/30/2014,46.1469444,-122.9072222
1/26/2014 17:35,san clemente,ca,us,circle,120,2 minutes,Two bright orange/red orbs sighted over Pacific Ocean.,1/30/2014,33.4269444,-117.6111111
1/26/2014 18:30,albuquerque,nm,us,egg,1125,18:45,The craft was no any commercial or military aircraft I&#39ve ever seen.,1/30/2014,35.0844444,-106.6505556
1/26/2014 18:35,herndon,va,us,sphere,120,2 minutes,Orange/reddish slow moving flying objects over Herndon. No noise.,1/30/2014,38.9694444,-77.3863889
1/26/2014 20:00,north arlington,nj,us,fireball,1200,20 minutes,Red circle hovering.  Started moving slowly than took off and disappeared.,1/30/2014,40.7883333,-74.1336111
1/26/2014 20:34,north arlington,nj,us,triangle,30,2:30 seconds,Low altitude high velocity no sound at all. dark triangles.,1/30/2014,40.7883333,-74.1336111
1/26/2014 21:00,jacksonville,fl,us,disk,360,6 minutes,Bright disc spotted over east Jacksonville near 295&#44 with aircrafts following.,1/30/2014,30.3319444,-81.6558333
1/27/2014 00:02,athens,tn,us,oval,45,45 seconds,Oval shaped&#44 bright lights&#44 brighter then street lights&#44 disappeared as fast as appeared.,1/30/2014,35.4427778,-84.5930556
1/27/2014 01:00,alameda,ca,us,diamond,5,3-5 seconds,Bright white elongated diamond shape in night sky.,1/30/2014,37.7652778,-122.2405556
1/27/2014 04:00,englewood,fl,us,changing,5,5 seconds,Orangish oval shape that slowly disappeared in sky seen by two friends.,1/30/2014,26.9616667,-82.3527778
1/27/2014 06:30,windsor (canada),on,ca,light,120,few minutes&#44 i jumped on,Dozens of white lights moving across the sky slowly and in the same direction.,1/30/2014,45.583333,-72.0
1/27/2014 08:00,sarasota,fl,us,fireball,180,3 minutes,6-7 red fireballs&#44 seen moving through the sky over Sarasota&#44  Florida.,1/30/2014,27.3361111,-82.5308333
1/27/2014 15:30,chillicothe,oh,us,circle,90,1.5 minutes,White round object followed by 2 fighter jets.,1/30/2014,39.3330556,-82.9825
1/27/2014 17:35,longview,wa,us,fireball,180,2-3 minutes,Driving home just after sundown I drove around a corner to see a number of lights (9-12)&#44 red-orange in color&#44 ascending to the sky. Af,1/30/2014,46.1383333,-122.9369444
1/27/2014 19:30,highfill,ar,us,triangle,900,15 minutes,Triangular craft 3 green lights visible.,1/30/2014,36.2613889,-94.3575
1/27/2014 20:15,midvale,ut,us,other,5,5 plus sec,At 20:00 hrs (8:00 mst just to be sure on time accuracy)&#44 I was told by wife to go get gas in her vehicle. I came upon the stop sign co,1/30/2014,40.6111111,-111.8991667
1/27/2014 21:05,tucson,az,us,other,120,2 minutes,Flew low over Tucson from the north to the south Below flying aircraft bright red and absolutely no noise. No flashing. Just steady red,1/30/2014,32.2216667,-110.9258333
1/28/2014 01:15,hayward,ca,us,oval,60,1 minute,I was looking out my kitchen window looking at the sky as i washed dishes and i saw a light i thought it was a plain until it got close,1/30/2014,37.6688889,-122.0797222
1/28/2014 02:47,mizpah,nj,us,diamond,600,7-10 minutes,Triangle shaped craft white lights(no blinking) slow moving pace with a green light dropped out of it low altitude heading S-SW 2:45am,1/30/2014,39.4866667,-74.8361111
1/28/2014 09:03,little elm,tx,us,triangle,120,2 minutes,3 red lights moving slowly and making a humming sound.,1/30/2014,33.1625000,-96.9372222
1/28/2014 11:23,jeffersonville,ky,us,triangle,360,3-6 minutes,First me and a friend watch the sky light blue&#44 then a triangle shape of 10 to 12 crafts were moving in the stanton direction&#33 cant exp,1/30/2014,37.9736111,-83.8419444
1/28/2014 13:24,st. petersburg,fl,us,flash,2,2 seconds,Bright white flash of light.,2/7/2014,27.7705556,-82.6794444
1/28/2014 18:45,punta gorda,fl,us,light,40,40 seconds,Two lights over Punta Gorda&#44 Florida.,1/30/2014,26.9294444,-82.0455556
1/28/2014 19:00,downeast,me,,circle,420,7 minutes,This red ball was like no man made &quot;light&quot; that I am aware of&#44&#44looking like a humming orb in down-east Maine.,2/7/2014,44.843106,-68.821982
1/28/2014 19:15,destin,fl,us,light,120,2 minutes,17:15 Destin&#44 Fl&#44 Sphere 2 minute duration orange sphere Light fading in and out and big then small and big again.,2/27/2014,30.3933333,-86.4958333
1/28/2014 19:17,bowling green,ky,us,fireball,5,5 seconds,Shooting&#44 burning star.,1/30/2014,36.9902778,-86.4436111
1/28/2014 20:30,fayetteville,ar,us,flash,3,3 seconds,Streak of Green Light.,2/27/2014,36.0625000,-94.1572222
1/28/2014 21:00,sultana,ca,us,circle,30,30 seconds,Rapid circle in the clouds that turn triangular green and disappears.,1/30/2014,36.5455556,-119.3391667
1/28/2014 21:10,las vegas,nv,us,light,10,10 seconds,White light ball speeds off and leaves colored trail.,1/30/2014,36.1750000,-115.1363889
1/28/2014 21:37,elk grove,ca,us,flash,3,3 seconds,Bright object flashes then shoots across the sky.,1/30/2014,38.4088889,-121.3705556
1/28/2014 23:15,omaha (texas&#44 not nebraska),tx,us,formation,15,15 seconds,3 lights with no sound heard&#44 traveling N to S in straight line formation.,2/7/2014,33.1805556,-94.7438889
1/28/2014 23:45,james island,sc,,flash,120,1-2 minutes,Green lights.,1/30/2014,32.753472,-79.952845
1/29/2014 02:00,beech grove,in,us,triangle,120,1 1/2 minutes,Low flying slow moving&#44 had red and white lights.,1/30/2014,39.7219444,-86.09
1/29/2014 05:30,fort lauderdale,fl,us,,2,2 seconds,Extremely  loud boom&#33,1/30/2014,26.1219444,-80.1436111
1/29/2014 06:05,palm beach gardens,fl,us,disk,900,15 minutes,Located about ESE &#44 about 3 miles distance from the ocean&#44 obvious stationary  above the ocean .Round bright whitish- not moving for a,1/30/2014,26.8230556,-80.1388889
1/29/2014 07:30,ahwatukee,az,us,light,1200,20 minutes,Flaming lights in the sky over Ahwatukee,1/30/2014,33.3416667,-111.9833333
1/29/2014 17:30,ottawa (canada),on,ca,triangle,300,5 minutes,Huge triangle with sun set reflecting off of it,1/30/2014,45.416667,-75.7
1/29/2014 17:45,plaistow,nh,us,sphere,300,3-5 minutes,Yellowish - Red Orbs seen from my car.  One of the orbs traveled towards me.,1/30/2014,42.8363889,-71.0952778
1/29/2014 18:17,longmont,co,us,disk,2,seconds,Fleet of disc shaped objects discovered in photograph taken in Longmont CO.,2/7/2014,40.1672222,-105.1013889
1/29/2014 18:41,scottdale,pa,us,triangle,300,5 minutes,Red lights changing to white on triangular craft,1/30/2014,40.1002778,-79.5872222
1/29/2014 18:49,scottdale,pa,us,triangle,300,5 minutes,Red lights on fast moving triangular UFO.,1/30/2014,40.1002778,-79.5872222
1/29/2014 19:34,santa clarita,ca,us,circle,600,5-10 minutes,Several orange-pinkish lights in sky looking east that moved in sky and then began to fizzle out.,1/30/2014,34.3916667,-118.5416667
1/29/2014 20:00,schenectady,ny,us,triangle,900,15 minutes,Orange lite over city.,2/7/2014,42.8141667,-73.94
1/29/2014 20:00,fort wayne,in,us,light,30,30 seconds,Two white lights seen stationary&#44 then &amp;quot;parted&amp;quot; and traveled out of sight.,1/30/2014,41.1305556,-85.1288889
1/29/2014 20:10,oakton,va,us,diamond,10,5-10 seconds,Hovering octagonal (diamond) shape object with flashing lights in the night sky.,1/30/2014,38.8808333,-77.3011111
1/29/2014 21:00,fort wayne,in,us,triangle,60,1 minute,3 lights in the shape of a triangle hover and then travel S&#44 SW.,1/30/2014,41.1305556,-85.1288889
1/29/2014 21:10,piqua,oh,us,light,60,1 minute,Bright white light seen moving over I-75 in Piqua&#44 OH.,2/7/2014,40.1447222,-84.2425
1/29/2014 23:00,oklahoma city,ok,us,disk,30,30 seconds,Nearby nighttime viewing of brightly lit saucer in South Oklahoma City.,1/30/2014,35.4675000,-97.5161111
1/29/2014 23:59,leetsdale,pa,us,light,180,3 minutes,Star-like bright white light moving slowly across the morning sky.,1/30/2014,40.5630556,-80.2086111
1/30/2014 00:00,hot springs,ar,us,,300,5 minutes,((NUFORC Note:  Witness provides no information.  Remains anonymous.  PD)),1/30/2014,34.5036111,-93.055
1/30/2014 00:10,lorton,va,us,unknown,10,10 seconds,Sounded like an incoming jet&#44 looked like ambulance or firetruck lights,1/30/2014,38.7041667,-77.2280556
1/30/2014 02:00,toronto (canada),on,ca,circle,3600,>1 hour,Very bright white light in night sky,1/30/2014,43.666667,-79.416667
