Date,city,state,country,shape,duration (seconds),duration (hours/min),comments,date posted,latitude,longitude 
4/1/1945 10:00,pacific ocean,,,disk,86400,all day,April&#44 1945 I saw a disc over our ship&#44 all day as we neard Okinawa.,4/16/2005,-8.783195,-124.508523
6/1/1945 12:00,salinas afb,ca,,disk,1800,30 minutes,ufos belong to the US Air Force,1/5/2011,36.760693,-121.765735
6/1/1945 13:30,jasper,fl,us,fireball,300,5minute,I belived it would be to our best Intrest to check this out .,11/21/2010,30.5180556,-82.9483333
6/7/1945 07:00,winston-salem,nc,us,disk,2,seconds,I always thought this sighting should be on an official list&#44 now&#44 60 yrs. later&#44 it is.,9/2/2005,36.0997222,-80.2444444
7/10/1945 01:30,portsmouth,va,us,formation,180,3 min,1945  RED  FLICKERING  V FORMATION  CRAFTS  MOVING  EXTREEML  FAST .,11/26/2003,36.8352778,-76.2986111
7/15/1945 14:00,dallas,tx,us,sphere,7200,2 hours ?,A round ball of fire .  Not a wisp of cloud. My mother and I were sitting on our back steps in the shade&#44 very hot.  This ball moved al,10/12/2001,32.7833333,-96.8
8/8/1945 12:00,huntington beach,ca,us,disk,300.0,5 minutes,MY DAD SAYS HIS AUNT AND UNCLE SAW THIS CRAFT IN 1944 OR 1945 DURING THE DAY IT HOVERED OVER THEM FOR ABOUT 5 MINUTES IN THE AREA OF BU,1/17/2004,33.6602778,-117.9983333
8/16/1945 11:30,san antonio,nm,us,oval,777600.0,8-9 days,THE CRAFT APPEARED TO HAVE DECENDED AT AN ANGL&#44 SKIDDED OVER A HUNDRED YARDS PUSHING THE DIRT IN FRONT OF IT AND BURIED IT&#39S SELF,11/11/2003,33.9177778,-106.8652778
12/15/1945 02:00,roswell,nm,us,sphere,60,1 minute,Sphere in Roswell. Were aliens looking for thier dead ?,12/23/2002,33.3941667,-104.5225
