Date,city,state,country,shape,duration (seconds),duration (hours/min),comments,date posted,latitude,longitude 
1/1/1987 00:00,castro valley,ca,us,oval,10,9-10 seconds,One single&#44 beach ball sized .... &amp;quot;red ball&amp;quot;,7/3/2013,37.6941667,-122.0852778
1/10/1987 17:00,el centro (approaching from west),ca,us,sphere,300,5 minutes,Two large&#44 apparently sperical objects&#44 glowing brightly in the deep red&#44 approached from behind&#44 passed overhead&#44 and into distance.,12/16/1999,32.7919444,-115.5622222
1/15/1987 00:00,ojai,ca,us,unknown,2,a few seconds,In 1987 a UFO passed a few feet above our car near old Creek Road in Ojai&#44 CA.,12/19/2003,34.4480556,-119.2419444
1/17/1987 06:30,llanelli (uk/wales),,gb,other,600,5/10mins,(i did a paper round so i was up early) it was a clear but chilly january morning i was looking up at the stars in my back yard i went,4/27/2004,51.676111,-4.156667
1/28/1987 04:16,dunstable (uk/england),,gb,oval,14400,4 hours,Oval shaped craft dive bombed me&#33,4/27/2004,51.883333,-0.516667
1/29/1987 03:00,kingston/amherst view (canada),on,,disk,900,10-15 min,close  really close,8/12/2008,44.223329,-76.650818
1/29/1987 22:00,las vegas,nv,us,disk,10800,3 hrs.,TWO UFO&#39S SPEND NIGHT ON MOUNTAIN&#44 SEEN THE NEXT DAY IN PLAIN DAYLIGHT,5/15/2006,36.1750000,-115.1363889
1/30/1987 13:00,east meadow,ny,us,changing,1020,15 - 17 min,ON 03/18107 photos of a black ufo&#44 that changed shape as it went from west to east&#44 were taken by my webcam.,4/27/2007,40.7138889,-73.5594444
1/30/1987 21:00,kenai,ak,us,light,5,5 seconds,Light quickly grows in intensity and then fades to nothing.,4/27/2007,60.5544444,-151.2583333
1/31/1987 17:04,black hawk,co,us,sphere,300,about 5 min,spheroid&#44 leading edge shimmering red&#44 main body whitish yellow&#44 low altitude,3/31/2008,39.7969444,-105.4933333
2/1/1987 14:00,lucas,tx,us,other,120,2 minutes,Car in the clouds.,12/2/2013,33.0841667,-96.5763889
2/3/1987 08:30,traverse city,mi,us,triangle,900,15:00,I can&#39t belive how close I was to the aircraft.,3/4/2008,44.7630556,-85.6205556
2/20/1987 01:30,bessemer,al,us,unknown,73800,aprox. 2 1/2 hrs,10/26/2011 To whom it may concern On or about Feb. 20th 1987 at about 1:30 am I had something happen I do not understand completely.,12/12/2011,33.4016667,-86.9544444
3/1/1987 01:00,revere,ma,us,light,3600,1 hour,Dancing Lights in sky as a child.,3/6/2001,42.4083333,-71.0125
3/1/1987 19:00,weaverville,nc,us,triangle,120,2 min,UFO IN ASHEVILLE N.C. 1987,1/29/2002,35.6969444,-82.5608333
3/5/1987 03:00,evansville,in,us,light,60,1 minute,I was a junior in college at the local university.  It was some time in March just before midterms.  I was sound alseep and suddenly aw,9/2/2005,37.9747222,-87.5558333
3/8/1987 12:27,ghent,wv,us,egg,600,10 minutes,It was scary&#33,4/1/2001,37.6169444,-81.115
3/10/1987 20:00,medford,ny,us,formation,300,5 minutes,Similar to lights over Phoenix,10/30/2006,40.8175000,-73.0005556
3/15/1987 03:00,scottsdale,az,us,light,180,three minuets,Bright light takes off into the skys over Scottsdale&#44 AZ in 1987,1/10/2009,33.5091667,-111.8983333
3/17/1987 21:00,new york city (bronx),ny,us,chevron,900,15 minutes,St. Patrick&#39s Day 1987 - Lights over the Bronx&#44 NY,11/28/2007,40.7141667,-74.0063889
3/23/1987 00:55,apache junction,az,us,changing,30,30 seconds,On March 23rd 1987 at 0055 a object broke up above us to the left of salt river dam&#44 and we heard a crash near weaver&#39s needle.,6/18/2004,33.4150000,-111.5488889
3/31/1987 23:00,east helena,mt,us,triangle,300,5 mins,Triange hovers over highway&#44 moves at increasing speed over highway then disappears,2/14/2006,46.5897222,-111.9147222
4/1/1987 21:30,malibu,ca,us,fireball,5,5 seconds,April&#44 1987 - Bright Bluish Crimson Ball flying over the Malibu Canyons,11/3/2005,34.0050000,-118.8091667
4/9/1987 19:20,lawrenceville,nj,us,other,480,about 8 minutes,Four octagon shape pods hooked together with pulsating lights. Most likely the bottom of the ship or objects body.,6/9/2009,40.2972222,-74.73
4/11/1987 22:00,carolina beach,nc,us,cigar,1800,30 minutes,I SAW WHAT I SAW,5/11/2005,34.0350000,-77.8938889
4/14/1987 12:00,butler,pa,us,other,45,45 seconds,I saw an unmanned craft&#44 3&#39 long fly 12&#39 over my head slower than a man walks&#44 then accelerate away at a great speed.,5/15/2006,40.8611111,-79.8955556
4/15/1987 02:00,huntingdon (canada),qc,ca,other,240,4 minutes,Pulsating&#44 emence light in Huntingdon QC,7/8/2004,45.083333,-74.183333
4/15/1987 05:00,perth (australia),,au,sphere,5,5 seconds,On a warm fresh morning in the summer of 87 i saw it suspended off the ground approx 1000yrds from me next to a main digital communicat,10/30/2006,-31.95224,115.861397
4/15/1987 16:00,seal rock,or,us,sphere,2,seconds,My wife and I are professional photographers and were doing some stock photo work at Seal Rock on the Oregon coast.  I still don&#39t know,7/30/2002,44.4991667,-124.0827778
4/16/1987 15:30,yanbu al sinaiyah (saudi arabia),,,disk,60,30sec to 1min,Awesome show of colours and wonder amidst desert sands,7/13/2005,23.984548,38.253305
4/16/1987 15:30,clearwater,fl,us,other,180,3 minutes,This is not the flying spaceship UFO&#44 but since it wasnt on the ground or identifiable this seemed the place to go. For 24 years I kept,3/10/2011,27.9655556,-82.8002778
4/17/1987 12:00,american fork,ut,us,formation,600,10 minutes,About a dozen objects flew in a diamond formation (from our perspective) from the north overhead to the south.,8/30/1999,40.3769444,-111.795
4/19/1987 22:30,carolina beach,nc,us,cigar,1800,30 minutes,I shined my bright headlights on it&#33,5/2/2011,34.0350000,-77.8938889
4/21/1987 22:30,hibbing,mn,us,circle,900,15 min.,we saw a strange light in the sky so we pulled over to the side of the road and watched in amazment as it moved with lighting speed,6/23/1999,47.4272222,-92.9375
4/22/1987 23:30,rockford,il,us,sphere,900,15 mins,Huge Orange Shaped sphere hovering about the ground about 3 feet.,9/17/2000,42.2711111,-89.0938889
4/23/1987 20:30,redmond,wa,us,cigar,300,5  minutes,orange blimp in night sky&#44 redmond Wa,4/13/2010,47.6741667,-122.1202778
4/24/1987 20:15,seattle,wa,us,changing,1200,20 minutes,Low flying Orange Blimp over Lake Washington (Seattle&#44 Madrona Park Beach),3/10/2011,47.6063889,-122.3308333
4/25/1987 14:30,bacolod city (occidental province) (philippines),,,light,120,more than 2-min/less than,Daylight &quot;disc&quot; ? Over Negros Island&#44 Philippines&#44 by amateur astronomer working on Observatory dome,1/17/2004,10.640739,122.968956
5/1/1987 23:00,winslow,me,us,unknown,900,15 minutes,This sighting happened beck in the 80&#39S in winslow maine. I was about 7 or 8 and my brother was about 10 or 11. one night i snuck into,6/3/2010,44.5469444,-69.6216667
5/5/1987 12:00,zarafshan (uzbekistan),,,sphere,6900,hour?,Large sphere the size of an apartment building hovered over a remote desert community.,9/2/2005,41.574366,64.183316
5/5/1987 21:00,natick,ma,us,disk,10,10 seconds,The object was saucer shaped since the bottom part of it was covered by the trees and there were hundreds of bright lights.,10/7/2003,42.2833333,-71.35
5/6/1987 18:15,el paso,tx,us,disk,20,15 to 20  seconds,Saw a UFO before my daily run.,2/25/2003,31.7586111,-106.4863889
5/8/1987 00:00,marble falls,tx,us,circle,600,10 minutes,Hovering white circle&#44 half the size of the full moon explodes without sound shoots up into the stars and vanishes.,12/9/2003,30.5780556,-98.2725
5/8/1987 02:00,newgale sands (uk/wales),,,light,5,5 seconds,light  &quot;answers&quot; beam shone at it.,8/28/2003,51.856389,-5.126111
5/10/1987 23:30,selden,ny,us,other,20,20 seconds,Saw a star stop make two 90 degree turns then vanish,3/21/2003,40.8663889,-73.0361111
5/14/1987 20:45,whitesburg,ky,us,rectangle,180,3 minutes,I saw two large&#44 rectangle objects&#44 moving silently outlined with small lights at 3 and 5 hundred feet in air.,1/31/2004,37.1183333,-82.8269444
5/15/1987 00:30,las vegas,nv,us,oval,120,2 mins,Las Vegas  Orbs display &quot; V&quot;  ariel perfomance in early morning sky,8/5/2001,36.1750000,-115.1363889
5/15/1987 23:00,temple,tx,us,cigar,120,2 minutes,cigar shaped ufo seen in Temple,7/5/2005,31.0980556,-97.3425
5/15/1987 23:00,island lake,il,us,light,0.01,milliseconds,4 red laser like lines,1/12/2012,42.2761111,-88.1919444
5/18/1987 22:30,evansville,in,us,other,900,10 to 15 min,i was taking my girlfrienend home it was around 1035 i was going west on brodway i was comeing up a hill and just about to pass a old c,10/10/2011,37.9747222,-87.5558333
5/20/1987 02:00,galveston,tx,us,changing,7200,1-2hours,i wrote to this site about 1 year ago and did not get a response from you.when i was 10 years old my mom called me and my brother a,10/30/2006,29.3011111,-94.7975
5/20/1987 22:00,mcpherson/lindsborg,ks,,triangle,7200,2 hours,Triangle Shape sighted.  Two hours of time lost during the encounter.,6/2/2013,38.573618,-97.674484
5/21/1987 02:00,san antonio,tx,us,disk,600,10 minutes,We saw a UFO that night that was about 400 feet long that made no sound and had a beacon of light shining out of it like it was looking,6/12/2008,29.4238889,-98.4933333
5/28/1987 19:00,schenectady,ny,us,chevron,600,ten minutes,At dusk the craft lingered over land&#44 close to the Knolls Atomic Power Lab&#44 Schenectady&#44 NY town of Niskayuna,1/28/1999,42.8141667,-73.94
5/28/1987 20:30,burnside,ky,us,circle,300,5 minutes,cant explain  thank about it almost everyday for 23 years,4/13/2010,36.9888889,-84.6
6/1/1987 00:00,iowa,la,us,unknown,15,15 sec.,A bright light came through the ceiling and paralyzed me and my friend.,11/28/2007,30.2366667,-93.0136111
6/1/1987 01:00,coos bay,or,us,disk,3600,1 hour,Dome type object went straight up with a little round object along side and below.Object kept moving up and down side to side and chang,4/2/1999,43.3666667,-124.2166667
6/1/1987 02:00,llandovery (uk/wales),,gb,other,1800,30 minutes,Fairy lights at speed and fold over UFO,2/14/2006,51.983333,-3.783333
6/1/1987 02:30,san francisco,ca,us,other,14400,2-4 hours,Abduction case&#44with 1 twist. Aliens left  unearthly communications object as proof of contact&#33  500 Lights On Object0: Yes,11/28/2007,37.7750000,-122.4183333
6/1/1987 03:00,olympia,wa,us,egg,300,5 minutes,sighting years ago in WA,3/19/2009,47.0380556,-122.8994444
6/1/1987 06:00,miami,fl,us,light,1200,20 min,Sighting near turkey point nuclear power plant Miami&#44 Fl.,8/7/2007,25.7738889,-80.1938889
6/1/1987 06:45,las vegas,nv,us,unknown,15,00:15,Moon appears to split in half,8/5/2001,36.1750000,-115.1363889
6/1/1987 15:00,new york city (staten island),ny,us,cigar,300,5 minutes,Three fast moving violently churning out of place red and black clouds,10/30/2006,40.7141667,-74.0063889
6/1/1987 16:00,redding,ca,us,,300,1    1/4 hr,rectangular craft trails auto for over 100 miles.,10/12/2001,40.5866667,-122.3905556
6/1/1987 17:00,ithaca,mi,us,other,900,15 min,The light&#39s,1/5/2011,43.2916667,-84.6075
6/1/1987 19:00,syracuse,ny,us,oval,600,10 min,5 oval lights on craft (red&#44 white&#44 green) underneath lights 4 round red lights-seen when the sky was dark and clear Syracuse&#44 New York,3/8/2007,43.0480556,-76.1477778
6/1/1987 19:30,gladstone,mo,us,disk,240,3-4 minutes,Flying saucer in Gladstone,2/24/2007,39.2038889,-94.5544444
6/1/1987 20:00,minford,oh,us,flash,10,10 seconds,Crackling sound&#44 flash&#44 and then swoosh sound.,10/15/2002,38.8588889,-82.8622222
6/1/1987 21:00,putnam valley,ny,us,formation,900,15 min,A Little late reg info&#44 but decided to repoert it. I would say that it covered the whole sky area that I looked at&#44 flashing lighs&#44 see,12/2/2000,41.3358333,-73.8744444
6/1/1987 22:00,kansas,ks,,fireball,300,5 minutes,Large blue light seen at night hovers and descends to earth,8/5/2001,39.011902,-98.484246
6/1/1987 22:00,little rock (outside of),ar,us,formation,180,2 or 3 minutes,I saw a triangular &#39star&#39 formation with fourth moving &#39star&#39.,5/11/2005,34.7463889,-92.2894444
6/7/1987 21:00,jackson hole (moran state park),wy,,light,73800,2 1/2 hours,Security personnel and park rangers observed  along with park staff which I belonged to at Jackson Lake Lodge. Observed a light we thou,11/17/1999,43.479929,-110.762428
6/10/1987 15:00,milton (canada),on,ca,sphere,1800,30 minutes,06/10/87.single bright silver&#44or chrome object paced my truck along 401 heading west for 30 mins,11/21/2010,46.3,-63.216667
6/10/1987 22:30,joplin (vicinity),mo,us,disk,900,15 min.,Saucer with lights within yards of us at a truck stop at Oklahoma state line for 15 minutes. In June 1987.,2/14/2008,37.0841667,-94.5130556
6/11/1987 09:00,sarasota (myaka state park),fl,us,disk,300,5 min,state road 72 disk with lights around it flew in a fast horizontal motion.,2/8/2005,27.3361111,-82.5308333
6/12/1987 01:00,pittsburg,ks,us,,60,1 min,NOT a ufo report. This is an abduction.,10/30/2006,37.4108333,-94.7047222
6/13/1987 01:30,cedarburg,wi,us,formation,2400,40min,It was dark we looked into the sky notticed 5 bright red lights doing formation stunts,9/29/2004,43.2966667,-87.9875
6/15/1987 01:00,vancouver island (over&#44 viewed by me and others) (canada),bc,,formation,10800,2-3 hours,Myself  ((deleted))along with a friend named ((del)) watched formations of triangle and globs doing what appeared to us e,4/1/2000,48.558371,-124.082637
6/15/1987 18:30,bullhead city/phoenix (between),az,,fireball,600,?? 10min ??,Two separate &quot;fireball&quot; incidents in very distant locations of the world. (AZ &amp; Hawaii),4/27/2004,33.448377,-112.074037
6/15/1987 20:00,burlington,ct,us,fireball,7200,2 hours,I remember it being in June of 1987 but the actual day is hard to remember.There is a stretch of road that runs through Burlington,3/2/2004,41.7691667,-72.965
6/18/1987 23:15,miamisburg,oh,us,triangle,5400,1hr30min+,Boomerang shaped craft over Miamisburg Ohio,7/5/1999,39.6427778,-84.2866667
6/20/1987 09:30,auburn,ma,us,fireball,5,5 seconds,Fireball went down into the woods. Moments later we heard rustling through the leaves&#44 twigs breaking,9/29/2004,42.1944444,-71.8361111
6/21/1987 23:00,gettysburg,pa,us,unknown,900,14-15 minutes,I was visiting the site of the famous civil war battles by myself.  At that night&#44 I was restless and got out of bed.  I looked out of,6/23/1999,39.8308333,-77.2313889
6/23/1987 01:30,summerfield,ok,us,light,600,10 minutes,Unexplained Object seen in LeFlore County&#44 Oklahoma.,10/28/2002,34.8986111,-94.8658333
6/25/1987 23:00,pahrump,nv,us,other,1200,20 minets,Unknown Cloud Around Object and changed color then vanished,2/22/2002,36.2083333,-115.9830556
6/30/1987 02:30,muskegon,mi,us,light,180,3 minutes,lights over the road,5/12/2010,43.2341667,-86.2483333
6/30/1987 04:45,irma,wi,us,oval,2530,25?30 sec.,4:45am while going to work had the camera with me noticed a very bright and pulsateing object headed strait for me this all happened in,5/24/1999,45.3513889,-89.6663889
6/30/1987 15:00,canton,oh,us,light,18000,5hours,I was abducted and I lost time. 500 Lights On Object0: Yes,10/31/2008,40.7988889,-81.3786111
6/30/1987 16:00,osceola county,fl,us,other,1800,30 minutes,This huge UFO blew me away in the 80&#39s along with dozens of others on Fl. Turnpike SE of Orlando.,10/30/2006,28.7927778,-81.0594444
6/30/1987 19:00,palm springs,ca,us,,1800,20-30 minutes,My girlfriend and I were in Palm Springs in the late 80&#39s at our hotel. It was early evening&#44 about the time you would start to see sta,5/24/2005,33.8302778,-116.5444444
6/30/1987 19:00,hancock,md,us,triangle,3720,2min.w/1hr.missing time,THE NEXT DAY &quot;THE LIGHTS IN THE SKY&quot; WAS ON THE NEWS ON TV RADIO AND NEWSPAPER..&quot;JUST AFTER SUNSET IT GOT COOL AND A FAINT FOG CAME,3/11/2006,39.6988889,-78.18
6/30/1987 21:00,st. cloud,fl,us,other,120,2 mins,Huge UFO Seen in Osceola County&#44 Central Florida&#44 Summer of 1985 or 1986,1/10/2009,28.2486111,-81.2813889
7/1/1987 00:30,thomaston,ga,us,circle,1800,30 minutes,MUFON/GEORGIA FOLLOW-UP REPORT:  Low hovering &#39ovoid&#39 circle of lights,4/26/2000,32.8880556,-84.3266667
7/1/1987 01:00,marshville,nc,us,other,7200,45-2hrs,UFO in clear sight of entire town&#44 egg shape(on its side)many colored lights&#44memory tampering&#44nose bleed&#44abduction.,2/24/2005,34.9883333,-80.3672222
7/1/1987 03:00,san pedro,ca,us,triangle,600,10min.,((HOAX??))  I was right under it when it pass over my head. 40ft. up.,1/10/2009,33.7358333,-118.2913889
7/1/1987 16:00,cherokee village,ar,us,cylinder,180,2 - 3 minutes,MISSOURI INVESTIGATORS GROUP Report:  This object passed directly overhead&#44 diagonally&#44 back to front&#44 horizon,6/12/2008,36.2977778,-91.5158333
7/1/1987 20:30,niagara falls (canada),on,ca,other,21600,2 evenings,The summer of 1987 was the time the stars themselves came out to dance&#33,11/26/2003,43.1,-79.05
7/3/1987 20:00,erie,pa,us,triangle,600,10 minutes,probable pre-declassified stealth sighting,12/19/2003,42.1291667,-80.0852778
7/4/1987 22:00,frankford,mo,us,light,3600,1 hour,An acrobatic light show in a star lite sky.,1/17/2004,39.4900000,-91.32
7/7/1987 01:00,neenah,wi,us,other,600,5-10 mins,multiple ships with a boxcar ship in my neighborhood,11/11/2003,44.1858333,-88.4625
7/7/1987 13:00,ciolpani (romania),,,disk,300,5 minutes,Stationary object above Lake of Snagov.,1/17/2004,44.72724,26.10957
7/7/1987 23:30,salina,ks,us,sphere,180,3 minute&#39s,Orb&#39s flying threw the trailer house.,7/25/2004,38.8402778,-97.6111111
7/10/1987 22:05,rockford,il,us,triangle,40,40 seconds,It about five after ten on a clear wind calm night. A friend and I were in a natural area on the property of a local hospital listening,3/6/2001,42.2711111,-89.0938889
7/12/1987 15:00,white bear lake,mn,us,disk,1200,20 minutes,True Minnesota Sighting July 1987,12/16/2005,45.0847222,-93.0097222
7/14/1987 01:30,sacramento,ca,us,other,60,30-60 seconds,grey alien was seen in Sacramento in july&#44 14th.,1/31/2011,38.5816667,-121.4933333
7/15/1987 01:30,teller,ak,us,disk,1800,30 minutes,5 CREDITABLE WITNESSES,10/15/2002,65.2636111,-166.3608333
7/15/1987 02:00,san juan capistrano,ca,us,light,3,3 seconds,Flat ribbon of yellow light cuts swath across nighttime sky&#44 then explodes.,3/19/2009,33.5016667,-117.6616667
7/15/1987 02:00,richton,ms,us,other,420,6-7 minutes,Richton&#44 Ms. &quot;lights Above&quot;,3/21/2003,31.3491667,-88.94
7/15/1987 03:00,arkansas (location unknown),ar,,light,20,10 to 20 sec,small&#44craft  very high flying a square wave pattern from horizon to horizon east to west,8/1/2003,35.20105,-91.831833
7/15/1987 13:00,houston,tx,us,sphere,1500,25 min,Sighting in Houston,10/20/2005,29.7630556,-95.3630556
7/15/1987 15:00,longueuil (canada),pq,ca,flash,5,5 sec,Yellow Sunny flash jumping in the sky.,8/5/2001,45.533333,-73.516667
7/15/1987 20:00,beaver dam,wi,us,other,1200,20 min.,((HOAX??))  WE SAW A LARGE OBJECT AND IT SCARED US.,10/12/2001,43.4577778,-88.8372222
7/15/1987 20:30,dyersburg,tn,us,circle,10,10 seconds,UFO sighting - the only one who remebers is the one who didn&#39t see it - circular bright hovering craft just above the house,8/5/2009,36.0344444,-89.3855556
7/15/1987 21:00,lakeville,ct,us,chevron,2700,45 mins,The wife and I were driving home when we saw in the west a &quot;V&quot; shaped pattern of lights flying north. It then made a 180 deg turn to th,1/28/1999,41.9644444,-73.4405556
7/15/1987 22:30,collinsville,al,us,triangle,600,10 minutes,Huge Triangular Craft,4/27/2007,34.2638889,-85.8605556
7/15/1987 23:00,alton (kendall hill subdivision),il,us,disk,120,1-2 minutes,Clear UFO sighting in the Mid-Late 1980&#39s&#44 Round craft&#44 moving slowly on a clear night.,4/16/2005,38.8905556,-90.1841667
7/18/1987 12:30,bierenbachtal (germany),,de,light,600,10min,a friend of mine and me were driving in july 1987 to a beer festival in bierenbachtal&#44in germany.the next bigger town is waldbroel&#44the,11/20/2001,50.916667,7.55
7/18/1987 21:30,rome,ga,us,sphere,600,10minutes,The ship was very low to the ground and moving very slow.,8/30/1999,34.2569444,-85.1647222
7/20/1987 18:00,jackman,me,us,sphere,3600,1 hour,Circular brilliant object&#44 missing time,2/4/2013,45.6238889,-70.255
7/20/1987 21:00,piscataway,nj,us,other,60,40-60 seconds,alledged UFO sighting unreported from over 20 years ago&#44 if story is true it could not be a man made aircraft nor a natural phenomenon,4/13/2010,40.4991667,-74.3994444
7/20/1987 23:00,widnes (uk/england),,gb,egg,60,a minute,OK&#44 i put this behind me&#44 but in 1987 i was walking home from the pub&#44 and i heard a low humming noise i turned and there was a silver,7/8/2004,53.35,-2.733333
7/20/1987 23:00,chimkent (shymkent) (kazakhstan),,,cigar,1800,30 min,Orange sigar-shaped glow with dots of light above were sighted in the mountain area near the Tourist camp.,5/11/2005,42.316667,69.595833
7/20/1987 23:59,windsor,mo,us,cigar,3600,1 hour +/-,April 16th&#44 2003  After the first few years of being on the receiving end of skeptical facial expressions as well as accusations of &#8220;ma,4/22/2003,38.5322222,-93.5219444
7/21/1987 11:00,gypsum,co,us,oval,300,5 minutes,UFO near Gypsum and Eagle Colorado around 1987 - strange oval object hovers and speeds away,1/10/2014,39.6469444,-106.9511111
7/21/1987 23:00,new york city (brooklyn),ny,us,oval,3600,60 minutes,above-city sighting of oval-shaped U.F.O. during meteor shower,10/15/2002,40.7141667,-74.0063889
7/22/1987 10:15,seattle,wa,us,triangle,120,about 2 minutes,Saw a triangular light formation on an aerial object with a light pulsing in the middle pass directly overhead on the Puget Sound,7/25/2004,47.6063889,-122.3308333
7/23/1987 00:15,scottsdale,az,us,unknown,1800,30 minutes,1 UFO 30 degrees off horizon due west of Scottsdale&#44 AZ.  Red&#44 White&#44 Blue&#44 Green flickering lights.  Hovered for about 20 minutes.  Mo,6/2/1998,33.5091667,-111.8983333
7/25/1987 02:00,lawton,ok,us,unknown,600,10 min,My girlfriend and I were lying on the ground looking at the stars&#44 we noticed a large object with 6 rings of lights&#44 dull like far away,11/11/2003,34.6086111,-98.39
7/28/1987 15:00,tucson,az,us,flash,2419200,4 weeks,I am apparently being watched&#44 because my family is from Roswell&#44 NM. 500 Lights On Object0: Yes,8/27/2009,32.2216667,-110.9258333
7/29/1987 01:30,edmonton (canada),ab,ca,triangle,180,3 minutes,large black triangular shape had three lights red&#44 white and blue&#44 hovered a few minutes&#44 no sound&#8230;,5/12/2011,53.55,-113.5
7/30/1987 21:20,asheville,nc,us,light,120,1:30 to 2 mins,pre-awarenees would see UFO  -- falling star - changing to dancing light - then very high speed departure,10/31/2003,35.6008333,-82.5541667
8/1/1987 00:00,indianapolis (150 miles sw of),in,us,light,120,2 minutes,I saw a redish colored orb that was &quot;observing lighting show thunderstorms&quot; &amp; it displayed 2 amazing climbs and a huge burst of speed.,6/10/2010,39.7683333,-86.1580556
8/1/1987 22:00,carlsbad,ca,us,diamond,180,2-3 minutes,I saw a diamond shaped object  hover over the Pacific&#44 which flew over my condo&#44 being pursued by Air Force fighter jets.,11/28/2007,33.1580556,-117.3497222
8/1/1987 22:00,live oak,fl,us,fireball,600,10 minutes,Green balls of light come from outdoors and enter house,4/18/2012,30.2947222,-82.9841667
8/10/1987 21:00,navoi (uzbekistan),,,light,1200,20 minutes,It was at the evening of 1987 on the south part of Navoi city in Uzbekistan&#44 my family and I saw a bright object over the KizilKum dese,12/9/2003,40.084444,65.379167
8/11/1987 23:00,applegate,ca,us,,900,15 min,a star turning on and off in different lacations,10/30/2006,39.0008333,-120.9913889
8/11/1987 23:00,neosho,mo,us,rectangle,900,15 min,It was huge&#44 quite&#44 and it made the earth vibrate.,6/12/2008,36.8688889,-94.3677778
8/13/1987 20:00,taipei (taiwan),,,cigar,180.0,3 min.,walking home with my sister after our english class&#44 saw an orange object flying over some apt. buildings.,1/7/2000,25.091075,121.559834
8/13/1987 21:00,springfield,oh,us,triangle,240.0,3-4 minutes,Massive triangular pattern of large white lights above clouds ... completely silent motion,8/10/1999,39.9241667,-83.8088889
8/15/1987 00:00,kitsap county (rural),wa,,light,10800.0,3 hours,Missing 3 hours of time after seeing lights behind car.,5/15/2006,47.647661,-122.641258
8/15/1987 01:00,marina,ca,us,other,1800.0,30m+,Looked like an asteroid--maybe a near miss?,5/15/2006,36.6844444,-121.8011111
8/15/1987 02:00,bremen,ga,us,disk,1.0,split second,I saw a disk-shaped craft with blinking lights of all colors right outside my window&#33,7/8/2004,33.7211111,-85.1455556
8/15/1987 02:30,rte 7,vt,,chevron,600.0,5-10 mins,Wing shaped craft with no noise&#44 blotting out stars as it passed overhead,8/5/2009,42.847818,-73.399936
8/15/1987 02:30,bessmer,mi,,light,900.0,15 minutes,One bright white and two bright green lights that lit up everything like daytime&#44 except it was night.,3/6/2001,46.481336,-90.05295
8/15/1987 14:00,prince george (canada),bc,ca,cylinder,120.0,2 minutes,Unusual object spotted above lake.,3/4/2003,53.916667,-122.766667
8/15/1987 16:00,toronto (canada),on,ca,cigar,120.0,2 minutes,I was listening to Coast to Coast which prompted me to report my sighting. I was driving on Hwy 35 just outside of Lindsay&#44 Ontario whe,4/27/2004,43.666667,-79.416667
8/15/1987 16:00,chino valley,az,us,sphere,18000.0,5 hours,3 witnesses of  3 flying objects at close distance and several hours of lost time.,10/30/2006,34.7575,-112.4530556
8/15/1987 19:00,bellefontaine,oh,us,rectangle,900.0,15 mins +,Rectangular object moving very slow,5/11/2005,40.3611111,-83.7597222
8/15/1987 22:00,saskatoon (canada),sa,ca,light,1200.0,20 minutes,I used to sit on our deck&#44on summer evenings and look at the stars. This was on a farm south of Saskatoon. Infrequently&#44 these lights w,12/2/2000,52.133333,-106.666667
8/15/1987 22:30,brookline,ma,us,triangle,7.0,7 seconds,Black triangular object flying low over Brookline MA in August 1987.  Made no noise&#44 had no lights.,2/14/2008,42.3316667,-71.1216667
8/15/1987 22:30,olancha,ca,us,disk,1200.0,20 minits,In re to; Call I placed to you on 04-30-04 at 10;20 am. Note ; {unabe to enter date in report form}. Dear Mr. Davenport. Thank you for,5/4/2004,36.2819444,-118.0055556
8/17/1987 02:00,springfield,or,us,cigar,240.0,4 minutes,Cigar Shaped and extremely close,11/16/2002,44.0463889,-123.0208333
8/17/1987 02:30,san diego (north),ca,us,disk,600.0,10 min.,Silver disc hovering very highup in a specific triangular pattern.,2/18/2001,32.7152778,-117.1563889
8/17/1987 19:00,jakes corners,az,,light,600.0,hour,Two crafts and orb in Jakes Corner with possible abduction&#44 5 witnesses  500 Lights On Object0: Yes,4/27/2007,34.010596,-111.3193
8/17/1987 20:00,los alamos,ca,us,chevron,1800.0,30min,horseshoe shaped ( like an elect&#44 razor) 6 or 7 feet long &#44same wide approx 3ft deep &#44blue light in window/w &#44flashin red light in mid,11/16/2002,34.7444444,-120.2772222
8/18/1987 22:00,lincoln (near),il,us,disk,30.0,20-30 seconds,I saw something in a cornfield very close to the road we were on. It was hovering about 30 feet up in the air.It was large and fairly q,8/10/1999,40.1483333,-89.3647222
8/20/1987 01:00,cedar springs,mi,us,circle,600.0,10 min,No sounds&#44 red flashing light on bottom&#44 like knight rider.,11/3/2005,43.2233333,-85.5513889
8/20/1987 02:00,port aransas,tx,us,triangle,180.0,3 minutes,Casa Grande&#44 Az,7/4/2012,27.8336111,-97.0608333
8/20/1987 20:00,hastings on hudson,ny,,triangle,10.0,10 sec,As I was walking down my dark driveway one evening in New York I looked up and saw this huge horseshoe shaped object just above the tre,10/27/2004,40.994542,-73.878746
8/22/1987 20:00,southbridge,ma,us,light,1200.0,20 minutes,Hovering light that was stationary for minutes then moved away,6/10/2003,42.075,-72.0338889
9/1/1987 00:00,panorama city,ca,us,other,60.0,1 minute,Purple glowing spiral shaped object that hovered and slowly rotated silently.,7/16/2006,34.2247222,-118.4488889
9/1/1987 20:00,hewlett,ny,us,disk,60.0,less than 1 minute,LILCO Lot Sighting,8/5/2012,40.6430556,-73.6961111
9/10/1987 18:00,conway,ar,us,cylinder,10.0,10 seconds,Heard a rumbling in the sky and then saw a yellow streak just above the treeline.Looked to have a yellowish color. With either red writ,11/17/1999,35.0886111,-92.4419444
9/15/1987 02:00,olongopo city (philippines),,,triangle,1800.0,30 min,Philippine naval base sighting of a ufo/uso with binoculars in hand,2/14/2006,14.83863,120.284202
9/15/1987 07:30,liverpool,ny,us,cigar,3.0,1-3 seconds,Cigar-shaped object with three white lights above LongBranch Elementary School&#44 Liverpool&#44 NY,8/5/2012,43.1063889,-76.2180556
9/15/1987 20:00,river hills (milwaukee suburb),wi,us,unknown,15.0,15 seconds,Saw a stationary and noise-free formation of five lights that looked like a Mack Truck in the sky&#44 with two large white lights almost l,8/30/1999,43.1741667,-87.9241667
9/15/1987 21:00,yankton,sd,us,triangle,6.0,5-6  seconds,silent isosceles triangle shaped mirage-like UFO with no lights,12/23/2002,42.8711111,-97.3969444
9/15/1987 23:00,tulare,ca,us,light,1200.0,20 minutes,Not a light in the sky&#44 this was 30 feet off the ground and we watched it for 20 minutes&#44 it was covered up.,5/15/2006,36.2077778,-119.3463889
9/16/1987 21:21,spokane,wa,us,disk,240.0,3-4 min,saucer overhead&#44hover 150 feet&#44no noise&#44within 100 yds&#44amber lights around edge one on top&#44 viewed with 7-21 pwr binoculars&#44started rot,6/6/2000,47.6588889,-117.425
9/18/1987 23:00,lima,oh,us,rectangle,480.0,5-8mins.,I saw a battleship size ufo that was outlined with lights but was transparent at the same time.,10/31/2003,40.7425,-84.1052778
9/20/1987 16:00,santa fe,nm,us,unknown,900.0,15 minutes,Groups of bright shiny lights in the sky moving around during the daytime.,4/8/2002,35.6869444,-105.9372222
9/25/1987 18:00,alvarado,tx,us,light,600.0,10 min,Hey&#44 it&#39s Following Us&#33,6/18/2004,32.4063889,-97.2113889
10/1/1987 01:00,west palm beach,fl,us,,10,one hour,An &quot;out of the body&quot; experience,2/18/2001,26.7052778,-80.0366667
10/1/1987 19:00,victoria (canada),bc,ca,sphere,900,15mins,Large red and orange sphere&#44 balanced on a rock in 1987.,10/30/2006,46.216667,-63.483333
10/1/1987 20:00,roseburg (7 miles northwest of),or,us,oval,1800,30 mins.,Two small glowing oval orange objects and one larger triangle craft in rural Oregon.,10/31/2008,43.2166667,-123.3405556
10/1/1987 21:00,alstead,nh,us,fireball,1800,30 mins.,sitting   in  a  car in a open  field&#44 keeping in mind this is in a  town where  we are in  the hills.  the  field during  the day has,1/19/2005,43.1488889,-72.3611111
10/1/1987 23:00,louisburg,nc,us,triangle,180,3 minutes,Large black triangular object with lights on each side and at the points making no discernible noise.,8/5/2001,36.0988889,-78.3013889
10/7/1987 22:00,liverpool (uk/england),,gb,light,10,10 seconds,Orange&#44 gliding ball of light shone into my bedroom window.,6/12/2008,53.416667,-3.0
10/8/1987 23:00,wytheville,va,us,light,720,8-12 minutes,A bright white object was sitting still in the sky while a half dozen smaller red lighted craft buzzed about.,6/20/2005,36.9483333,-81.085
10/11/1987 21:30,minnetonka,mn,us,light,30,30 seconds,White light moves west to east&#44 suddenly stops&#44 then moves south at a high rate of speed.,10/14/2013,44.9133333,-93.5030556
10/11/1987 23:59,otto,mo,us,fireball,60,60 seconds,bright blue ball of light.,8/19/2000,38.3708333,-90.5002778
10/15/1987 02:00,raleigh,nc,us,triangle,120,2 minutes,Huge triangle passes over oblivious&#44 sleeping capital,7/16/2003,35.7719444,-78.6388889
10/15/1987 16:00,burnet,tx,us,disk,20,10-20 seconds,Silver saucer object hovering on hill,12/16/2005,30.7580556,-98.2280556
10/15/1987 20:00,bolingbrook,il,us,triangle,300,5 minutes,Thin black triangle&#44 moving slowly over field in suburban Chicago.,10/8/2007,41.6986111,-88.0683333
10/15/1987 21:00,cheltenham (melbourne) (victoria) (australia),,au,circle,600,10 minutes,Sighting of the Mother ship &quot;UFO&quot; Charman Rd Cheltenham Vic &#44 Australia 1987-1988,11/20/2013,-37.966667,145.066667
10/15/1987 21:00,yonkers,ny,us,rectangle,1800,30 minutes,Silent rectangular football field sized object fling at about 1000 feet with 6 groups of lights on bottom and across stern,9/13/2002,40.9311111,-73.8991667
10/15/1987 21:00,itta bena,ms,us,circle,300,5 min,I saw a UFO one fall night in the shape of a golden circle.,11/4/2002,33.4950000,-90.3197222
10/15/1987 21:00,osawatomie,ks,us,other,7200,2+ hours,Many colorful balls of light over Osawatomie to Canada,6/2/2013,38.4972222,-94.9502778
10/15/1987 22:00,eastchester,ny,us,triangle,180,2 -3  minutes,huge dark dimly lit Triangle  slowly passes over  Platform Tennis  Courts in Eastchester NY,2/8/2005,40.8883333,-73.8286111
10/15/1987 22:30,baker,mt,us,light,600,5 to 10 min,bright light came out from behind a cloud and split off into 6 smaller lights leaving at a high speed,5/24/2005,46.3669444,-104.2841667
10/21/1987 21:30,swansea (uk/england),,gb,triangle,1800,30 minutes,Triangular lights seen over Swansea and Port Talbot,5/15/2006,51.633333,-3.966667
10/21/1987 21:30,swansea (uk/england),,gb,triangle,600,10 minutes,many witness slow moving huge triangular craft,12/16/2005,51.633333,-3.966667
10/22/1987 20:00,portsmouth,nh,us,cigar,1200,20 minutes,Large silent black cigar shaped craft sighted over Pease AFB,5/2/2014,43.0716667,-70.7630556
10/26/1987 23:00,jackson,wi,us,formation,60,1 minute,3 reddish orange objects spotted in formation.,11/11/2013,43.3238889,-88.1666667
10/28/1987 20:30,las cruces,nm,us,changing,1800,30 minutes,Las Cruces lights.,4/27/2004,32.3122222,-106.7777778
10/29/1987 23:30,kerens,tx,us,circle,1,1 second,while facing E/NE saw a red ball just at the horizon. the object then streaked across the sky leaving a green laser looking tail that w,1/28/1999,32.1330556,-96.2275
10/30/1987 22:00,pleasant hill,ca,us,sphere,180,3 minutes,Close Encounter With Low-Flying Glowing Orange Orb,8/30/2013,37.9480556,-122.0597222
10/31/1987 18:30,omaha (near),ar,us,triangle,900,15 minutes,Silent huge triangular ship flies right over highway 65 North.,1/16/2014,36.4522222,-93.1883333
11/1/1987 04:00,dallas,nc,us,light,600,10 minutes,Bright light in window,12/19/2003,35.3163889,-81.1763889
11/1/1987 20:00,daytona beach,fl,us,cylinder,60,1min,This cigarette shaped object spun without an axis of rotation&#33,5/11/2005,29.2105556,-81.0230556
11/1/1987 22:00,lyons,co,us,oval,10,5-10 seconds,Large oval object with white glowing lights moves slowly above the car.,11/11/2013,40.2247222,-105.2708333
11/9/1987 19:50,nepean (canada),on,ca,light,600,10 minutes,4 spheres approaching 2 people&#44 turning a rectangle of light over the vehicle&#44 and up at 80 degrees  in spiral -white&#44quiet&#44fast,6/21/2000,45.3466667,-75.77
11/15/1987 02:00,gatineau (canada),qc,ca,triangle,2700,45 min,The triangle was black as a hole in the night sky and as large as a football field.,7/13/2005,45.483333,-75.65
11/15/1987 02:00,san diego,ca,us,flash,1,1 second,flash like daylight lit up everything for 1 second&#44 not lightning,4/28/2001,32.7152778,-117.1563889
11/15/1987 19:30,st. petersburg,fl,us,rectangle,180,2-3 min,The exact date is vague but I remember it being somewhere between Nov 1987-Feb 1988. I was heading northboud on 4th st N just north of,1/10/2009,27.7705556,-82.6794444
11/15/1987 22:00,reedsville,wi,us,triangle,600,8-10  min.,Get the hair to stop standing up on my neck &#44This Was Too Real .,5/11/2005,44.1536111,-87.9566667
11/15/1987 23:00,crivitz,wi,us,unknown,600,10 min.,green light spotted above trailer.Footsteps leading to trailer&#44door opened and footsteps came toward bdrm door.Door opened slightly&#44sha,1/28/1999,45.2325000,-88.0075
11/17/1987 06:00,anchorage,ak,us,light,180,3 min,Glowing ball of light,5/11/2005,61.2180556,-149.9002778
11/20/1987 21:30,uvalde,tx,us,circle,3,about 3 seconds,LIGHT SHOOTING STRAIGHT UP,11/20/2001,29.2094444,-99.7858333
11/23/1987 19:45,knoxville,tn,us,chevron,1200,20min,300 ft Flying wing followed by fighters&#44 later observed by glowing ball.,10/30/2006,35.9605556,-83.9208333
11/23/1987 23:00,firebaugh,ca,us,triangle,1200,15-20 min,In late 1987 while driving south on I-5&#44 I witnessed a UFO for approx 15-20 min.,9/2/2005,36.8588889,-120.455
11/26/1987 06:30,tehachapi,ca,us,unknown,480,8 minutes,Tehacipi&#44 CA: Lights sighted and missing time noted.,12/16/2005,35.1322222,-118.4480556
11/27/1987 17:30,el paso,tx,us,oval,30,30 seconds,A noiseless&#44 round object with colorful bright lights&#44 hovering in the desert of northeast El Paso Tx. by McGregor Range.,5/11/2005,31.7586111,-106.4863889
12/6/1987 02:00,newcastle (australia),,au,circle,300,5 min,stop up hill in car take photo of car and this was on film zoomed in on computer 19 years later and seen this looks like ufo over car w,10/30/2006,-32.927792,151.784485
12/10/1987 21:00,nurenburg (germany),,de,,28800,8 hours,missing time and location displacment,2/14/2010,49.447778,11.068333
12/12/1987 21:00,lake ozark,mo,us,cigar,600,10 minutes,3 vehicles traveling NNE to SSW at 25 mph or less. Bright white light on fromt of each. Large lights on sides. Large green tail light.,1/22/2000,38.1986111,-92.6386111
12/13/1987 01:00,mapelton,il,,cone,24,00:24,2 cone craft seen from porch,12/9/2003,40.566428,-89.731773
12/15/1987 22:00,guyana,,,unknown,5,5 seconds,Object streaked at a very high speed into the sky. Object was kinda redish and orange in color and looked kind of round from the distan,12/23/2002,4.860416,-58.93018
12/20/1987 01:00,tampa/miami (on highway between),fl,,unknown,900,15 minutes?,My family were visiting disney world Christmas of 1987.  Because the family was from Winnipeg Manitoba Canada&#44 we were staying in Tampa,2/14/2008,27.997537,-82.452192
12/20/1987 17:15,las vegas (60-70 miles north-east of&#44 interstate 15 north),nv,us,light,240,3 - 4 minutes,Viewed pairs of red strobing lights extended across wide area of Nevada desert and watched as two F-15 fighter aircraft tried to interc,3/7/1998,36.1750000,-115.1363889
12/23/1987 22:00,ocala,fl,us,triangle,120,two minutes,Strange transparent objec t with red lights at joints seen around 10 pm moving northeast very slowly.,7/1/2002,29.1869444,-82.1402778
12/24/1987 20:00,exeter,ri,us,rectangle,60,1 minute,UFO seen Christmas Eve 1987. Made sudden &quot;L&quot; shape turn unlike any known aircraft.,2/4/2013,41.5775000,-71.5380556
12/31/1987 23:00,woodbridge,va,us,sphere,5,5 seconds,Basketball sized neon orange/yellow spinning sphere no sound hovering on road and moved vertically in front of my windshield. 500 L,3/23/2011,38.6580556,-77.25
