Date,city,state,country,shape,duration (seconds),duration (hours/min),comments,date posted,latitude,longitude 
1/1/1997 01:30,perth (western australia),,au,triangle,3600,1hr,u.f.o. over suberbia,12/23/2002,-31.95224,115.861397
1/1/1997 07:00,jamestown,nd,us,changing,600,around 10 mins,AUTHOR&quot;S SUMMARY:  The object was around the size of a small car it changed shape and light color and pattern as it moved. it was silen,10/12/2001,46.9105556,-98.7080556
1/1/1997 07:00,chanute,ks,us,circle,35,25-35 sec`s,3 circle shaped objects travelling due north.,2/16/2000,37.6791667,-95.4569444
1/1/1997 13:00,arrayo grande,ca,,oval,14400,4 hours,These sightings were ten years apart and exactly the same type of craft&#44 wich I have seen since then in photos of sightings on the web.,10/31/2008,35.118587,-120.590725
1/1/1997 15:30,johnston,ri,,rectangle,60,1 min,Cube haystack shape seen a between 1997-1998 (not sure of exact date)........,8/11/2004,41.82052,-71.512617
1/1/1997 19:30,phoenix,az,us,chevron,1200,20 minutes,Phoenix lights witnessed and documented two months prior to major sighting.,10/15/2002,33.4483333,-112.0733333
1/1/1997 20:30,clatonia,ne,us,,600,10 min.,Woman &amp; daughter rept.  4-5 objs. with red&#44 blue&#44 and white lights.  Close to ground in fog.  Moved very fast. (No written rept.),11/2/1999,40.4652778,-96.8494444
1/1/1997 23:00,tom sauk moutain,mo,,light,600,10 minutes,This was January 1&#44 1997.  I was backpacking in the Mark Twain Forest of Missouri.  It was about 11pm.  I was sitting on a rock in the,8/12/2008,37.964253,-91.831833
1/1/1997 23:59,chilhowie,va,us,cross,180,3 minuntes max,4 craft slowly came together from four directions (North&#44 South&#44 East&#44 West) They stayed together for 2-3 minutes(shot off in different,8/10/1999,36.7983333,-81.6825
1/2/1997 19:15,austin,tx,us,light,1800,30 minutes,While viewing M42 through telescope&#44 we witness 3 anamolous moving lights&#44 two with scope&#44 one with naked eye&#44 approx. 10-15 min. apart,1/28/1999,30.2669444,-97.7427778
1/4/1997 21:00,steinhatchee,fl,us,cigar,300,5 min,It was orangish reddish in color as if it were passing through the atmosphere.A craft at this height must have been massive.,4/15/2000,29.6708333,-83.3877778
1/4/1997 21:32,santa rosa,ca,us,disk,900,15 min,A brief encounter with a circular looking object that appeared to be on fire...A neighbors house down the street a circular looking,3/7/1998,38.4405556,-122.7133333
1/5/1997 01:10,haleiwa,hi,us,triangle,7200,1-2 hours,January 1977  1:00 am  Haleiwa Hawaii  Two craft (like power boats) at 5000 feet Exchanging power beam 1-2 hour duration,11/11/2013,21.5902778,-158.1125
1/5/1997 17:00,beirut (lebanon),,,fireball,15,15 seconds,me and my wife bringing our chuild from the school&#44we both saw around shaped fireball with a tail around ahundred meter long passing ju,6/6/2000,33.888629,35.495479
1/7/1997 00:35,amelia,oh,us,light,300,5 min.,We saw a large &quot;spotlight&quot; at about 100-150 ft directly above us. It had one flashing red light above the spotlight and two white light,3/7/1998,39.0283333,-84.2177778
1/8/1997 16:00,worsley&#44 manchester (uk/england),,,teardrop,120,2 minutes,Tear drop shape&#44 emitting dull gold glow at around 7000 feet. Moving at same speed as airliners in landing pattern in same vicinity.,3/7/1998,53.50754,-2.391199
1/8/1997 17:20,brooklyn,ct,us,disk,2,2 seconds,Flat&#44 round object heading rapidly SE horizontally.I was on my way home from work on roads I&#39ve travelled at this time of day for t,3/7/1998,41.7880556,-71.9502778
1/8/1997 17:22,south attleboro,ma,us,disk,7,7 seconds,At dusk on perfectly clear night saw large&#44 blue bright disk fly vertically down and skim out over the earth. As it pulled out of its d,3/7/1998,41.9083333,-71.3625
1/8/1997 19:00,eden,ny,us,light,60,30-60 sec.,Circular light image moving in an arc downward.  Brightly lit&#44 white-yellow with warmer tones flaring out on the bottom.  It&#39s size was,3/7/1998,42.6522222,-78.8972222
1/8/1997 23:59,manchester (uk/england),,gb,triangle,60,one min,rotating triangle of light,7/5/2008,53.5,-2.216667
1/10/1997 22:00,columbus,oh,us,triangle,15,15 seconds,Very large triangular craft moved silently and darkly (no lights) very fast through dark Columbus OH night.,2/1/2007,39.9611111,-82.9988889
1/11/1997 05:00,st. cloud,mn,us,pyramid,120,2 min.,Right when me and my friend left the my housewe saw a bright green glowing object thatlooked like a 4 sided pyrimid then after about2 m,3/7/1998,45.5608333,-94.1622222
1/11/1997 22:00,carrollton,tx,us,circle,2700,45 minutes,Very distinct object (circular in shape) passed over three major suburb cities of Dallas&#44 Tx.,2/8/2005,32.9536111,-96.89
1/11/1997 23:30,brisbane (qld&#44 australia),,au,circle,3600,1 hour,Strange lights over Brisbane,8/5/2001,-27.47101,153.024292
1/12/1997 23:00,billings,mt,us,light,300,5 minutes or less,Two bright red lights moving in perfect formation flew over Billings on the evening of Jan.12&#44 1997.  They were&#160;flying at an altitude n,3/7/1998,45.7833333,-108.5
1/13/1997 17:30,lombard,il,us,fireball,1800,30 minutes,While my friend and I were out sledding by my house we saw a comet-like object and eventually nine other similar objects appeared.,4/28/2001,41.8800000,-88.0077778
1/14/1997 16:00,mckinlyville/eureka (near arcata driving),ca,,disk,60,one minute aprox.,SMALL DISK SHAPE UFO,3/7/1998,40.971148,-124.106615
1/15/1997 00:30,columbia,sc,us,light,4,4 seconds,Light in sky made 90 degree turn,11/28/2007,34.0005556,-81.035
1/15/1997 01:15,mankato/lake crystal,mn,,sphere,10,about 10 seconds,Two spheres&#44 one silver&#44 the other emerald.  Great speed&#44 seen from 1/4 mile away.,2/12/2004,44.057325,-94.19234
1/15/1997 04:30,calabash,nc,us,oval,600,10 minutes,This was a round solid object like a chandelier with many tiny white lights,2/18/2001,33.8905556,-78.5686111
1/15/1997 11:30,circleville,oh,us,disk,180,3 minutes,Small(er) craft hovering over a small woods &#44 possibly leaching power from large power lines,9/1/2004,39.6005556,-82.9461111
1/15/1997 15:00,pico rivera/paramount,ca,,oval,900,10-15 mins,during the day&#44 the amount of them and what the saucers were doing,1/29/2002,33.990968,-118.098861
1/15/1997 17:30,long beach,ny,us,egg,300,5 mins,A bright luminesant egg shaped object aproached the beach from the south and hovered with out sound for three mins.,3/7/1998,40.5883333,-73.6583333
1/15/1997 18:00,millsboro,de,us,triangle,7200,appx. 2 hours,4 lights in square formation in sky and small triangular craft seen at close range,3/21/2003,38.5913889,-75.2916667
1/15/1997 18:30,alturas,ca,us,disk,180,3 minutes,pink/reddish glow with a gray round craft there was only one. It swayed back and forth and dissappeared.Jan. 15&#44 1997 approx. 5:30p,8/5/2001,41.4872222,-120.5413889
1/15/1997 23:00,ellensburg (? on a pass just pass&#44 just east of),wa,us,fireball,40,40 seconds,Orange orb,2/25/2003,46.9966667,-120.5466667
1/16/1997 06:30,seguin,tx,us,fireball,5,5 seconds,San Antonio Express-News ran 3 stories on the &#39UFO&#39 that was found in a rancher&#39s field.From San Antonio Express-News story&#44 2 witn,3/7/1998,29.5686111,-97.9644444
1/16/1997 18:00,moab,ut,us,other,180,3 min.,Very bright stationary object approx. 30 deg.off horizon.  Emitted triangular yellow greenlight&#44 modulating from flood to spot beam.  T,3/7/1998,38.5733333,-109.5491667
1/17/1997 02:00,sydney (nsw&#44 australia),,au,cylinder,600,10 minutes,A long&#44 rotating tube like object&#44 covered with small windows. Perhaps 50m long. With two antennae like objects protruding from the fro,3/7/1998,-33.861481,151.205475
1/18/1997 22:00,las vegas (se of),nv,us,sphere,10,5-10 sec,Luminous sphere (white) travelling due west at a very high velocity (it slowed down and then accelerated). It moved along a ridge of a,3/7/1998,36.1750000,-115.1363889
1/19/1997 20:52,rio de janeiro (brazil),,,light,30,30 sec,3 fast moving redish lights&#44 very high&#44 moving first North to South&#44 them one manuevering to NW&#44 followed by the  other 2.Clear eve,3/7/1998,-22.9083,-43.197077
1/21/1997 19:15,blackwell,ok,us,triangle,600,10 minutes at least,A gold triangular shaped object with a red &quot;tail&quot; was seen hovering in the air west southwest of Blackwell&#44 OK.  It hovered for at leas,3/7/1998,36.8044444,-97.2825
1/22/1997 03:35,altus afb,ok,,changing,30,30sec,Object breaking up above western oklahomaAt 3:35am Central time over S.W. Oklahoma a bright object came from the north about 30 deg,3/7/1998,34.663887,-99.273888
1/23/1997 18:30,north kingstown,ri,us,triangle,180,3 minutes,1/23/97: Huge black triangle w/ rearguard heli&#44 sighted  over deserted Rte.1A in RI&#44 drifts overhead &amp; out to Sea.,1/27/2005,41.5500000,-71.4666667
1/24/1997 19:00,alta,ut,us,other,10800,3 hours plus,A &quot;moving star&quot; similar to a satellite stopped&#44 hovered&#44 and darted around for over 3 hours.  A telescope revealed a round shape.I,3/7/1998,40.5888889,-111.6372222
1/25/1997 21:00,marion,wi,us,triangle,120,2 minutes,On a camping trip 3 triangle shaped objects were seen by myself and 7 other campers slowly drifting over&#44 almost surveying the landscap,3/7/1998,44.6708333,-88.8891667
1/26/1997 22:00,flagstaff,az,us,light,360,six minutes,It traveled at about the same speed we were going and continued along with us for about five to seven miles.,3/19/2009,35.1980556,-111.6505556
1/29/1997 23:15,east greenwich,ri,us,disk,300,5  minutes,I witnessed a UFO which may be of the Lazar&quot;Sport Model&quot; variety when I was leaving work to drive home.The UFO was circular in shap,3/7/1998,41.6602778,-71.4563889
2/1/1997 06:35,alto,mi,us,triangle,600,10 minutes,Triangular Craft Hovered&#44 then Zoomed overheard.,2/14/2006,42.8566667,-85.3802778
2/1/1997 09:30,yucca valley/morongo valley,ca,,other,180,2 or 3 min.,I just seen this thing flying in the air I took some pictures and I took pictures of the helicopter chasing it&#44 I can&#39t remember the da,1/17/2004,34.12423,-116.418189
2/1/1997 13:00,unincorporated,az,,rectangle,10,10 seconds,Giant rotating rectangular shaped &quot;mirror&quot; flying accross the sky.,1/10/2014,34.048928,-111.093731
2/1/1997 18:30,sunderland (uk/england),,gb,light,900,15 mins,Two lights seen in Sunderland,8/5/2001,54.911944,-1.383333
2/1/1997 21:00,winter springs,fl,us,cone,300,about 5 min.,We were jumping on the trampoline and we see a top-looking shape in the air hovering above us with no sound. it had lights surrounding,3/7/1998,28.6986111,-81.3083333
2/1/1997 21:30,vancouver (canada),bc,ca,unknown,600,10 minutes,Stationary up in sky&#44 very high up in clouds and with 6 or so lights swirling around while it stayed still.,9/1/2004,49.25,-123.133333
2/1/1997 23:00,elizabeth,nj,us,sphere,30,15-30 sec,Spheres in New Jersey,2/18/2001,40.6638889,-74.2111111
2/2/1997 08:25,thackery,oh,us,unknown,5,1and 1/2 hours,Objects that move much more quickly than airplanes.  They moved strait up and down even below tree tops.  They would stay still for man,3/7/1998,40.0555556,-83.9188889
2/3/1997 20:00,virden,il,us,disk,120,1-2minutes,UFO  {SAUCER SHAPE} IN THE CLOUDS,8/28/2002,39.5008333,-89.7677778
2/5/1997 22:00,albuquerque,nm,us,flash,180,3 min,Two crafts flying onto field,1/22/2004,35.0844444,-106.6505556
2/6/1997 03:15,grove city,pa,us,,10800,3 hours,Had a alien possible abduction &#44very hard to talk about it. Remember hearing  buzzing sound and 6 small grey figures that  passed out.,3/7/1998,41.1577778,-80.0888889
2/6/1997 16:45,mesa,az,us,triangle,4,3-4 seconds,UPDATE TO 2/6/97 MESA&#44 AZ SIGHTING ALREADY POSTED TO NUFORC WEBSITE,6/12/2008,33.4222222,-111.8219444
2/6/1997 16:45,mesa,az,us,triangle,4,3-4 seconds,In Mesa&#44 AZ&#44 I clearly saw a large triangular ship&#44 flying slowly---it turned / flew away at terrific speed.,3/31/2008,33.4222222,-111.8219444
2/8/1997 18:00,stacy,mn,us,unknown,120,1 to 2 min.,We observed something strange along the freeway with at least 5 strobe lights we thought it was going to crash&#44 but it pulled up at the,9/26/1998,45.3980556,-92.9872222
2/9/1997 13:45,seattle,wa,us,oval,240,4 minutes,Three objects over downtown Seattle&#44 early morning,1/31/2004,47.6063889,-122.3308333
2/10/1997 00:10,los angeles,ca,us,triangle,7,6-7 sec,object passed overhead.no sound no exhaust,1/28/1999,34.0522222,-118.2427778
2/10/1997 18:00,brentwood,tn,us,light,120,2 minutes,changing bright orb,11/20/2001,36.0330556,-86.7827778
2/11/1997 11:00,phoenix,az,us,cigar,600,10 min.,I waked out my back door and saw something that looked like the Hindenberg zepplin.,1/7/2000,33.4483333,-112.0733333
2/12/1997 03:30,chatham (canada),on,ca,triangle,30,30sec,Huge&#44 Slow &#44 Silent with 7 dim orange lights in a V shape pattern passed overhead&#44 no trail or sound.,6/20/2005,42.4,-82.183333
2/12/1997 18:20,san antonio,tx,us,triangle,15,15seconds,My girlfriend and I report seeing 7 lights in a boomerang shape object going east flying very slowly. The object was about 100 yards up,8/28/2002,29.4238889,-98.4933333
2/13/1997 07:00,lakewood,co,us,teardrop,600,10 minutes,Hovering object...quiet crack...then vanished,12/16/2005,39.7047222,-105.0808333
2/14/1997 18:00,las vegas,nv,us,formation,300,5 minutes +/-,Formation of  balls of light travelling across the sky&#44 one behind the other&#44 early in 1997.,8/7/2007,36.1750000,-115.1363889
2/14/1997 20:00,ormond beach,fl,us,chevron,12,.20 minutes,Large Chevron shaped ufo floats over Ormond Bch. Florida,6/20/2005,29.2855556,-81.0561111
2/14/1997 23:59,pichilemu (chile),,,circle,180,3 min,been in pichilemu coust of chile i sow a white cloud above over the sea that moves towards north changing the form from a cloud to a ci,3/4/2003,-34.386725,-72.004773
2/15/1997 03:00,la puente,ca,us,other,2,2.0 seconds,From a stand-still... to a one-second period of ignition... followed by one-second of what sounded like the after-burner of a massive-,1/28/1999,34.0200000,-117.9486111
2/15/1997 13:00,north adams,ma,us,diamond,120,2 mintues,My wife and me were unpacking boxes in our new apartment on a hill overlooking the town. I had decided to take a cigerette break and en,5/24/2005,42.7008333,-73.1091667
2/15/1997 20:00,prescott valley (4-5  miles east of),az,us,other,2400,35-40min,Observed yell/gold slightly out of round orb floating below treetop level less than 50 ft. from me&#44 unobstructed view&#44 silent&#44 observed,4/15/2000,34.6100000,-112.315
2/15/1997 21:30,harrisonburg,va,us,fireball,2,1-2 seconds,I saw a ball of light&#44 which quickly disappeared.,8/28/2003,38.4494444,-78.8691667
2/15/1997 22:30,hudson,wi,us,unknown,300,5 minutes,The light made absolutely no noise whatsoever it was so quiet it was scary.,2/24/2001,44.9747222,-92.7566667
2/15/1997 23:35,blairsville,pa,us,light,300,5min,Low flying aircraft hovering above elementary schoolIt was 11:35 pm and I was driving west from Bolivar Pa to blairsville on route,3/7/1998,40.4311111,-79.2611111
2/16/1997 03:00,randolph,ny,us,circle,600,10 min,It pulsated&#44 It went from point A to point B like no other aircraft I&#39ve ever seen. NW to N&#44 Then in a fixed postion from when I saw it,5/24/1999,42.1619444,-78.9755556
2/17/1997 00:47,pittsburgh,pa,us,other,1200,20 min,A LARGE CRAFT WITH FIVE SMALL FLOATING LIGHTS SURROUNDING IT&#44 HOVERED OVER EDGEWOOD FOR A SHORT AMOUNT OF TIME THEN SEEMED TO VANISH.,3/7/1998,40.4405556,-79.9961111
2/17/1997 22:15,waseca,mn,us,other,3600,1hr30mn,We had seen a Bright light in the sky just NW of Waseca Mn&#44,6/6/2000,44.0777778,-93.5072222
2/18/1997 00:50,melbourne (vic&#44 australia),,au,other,0.5,1/2 sec,BRIGHT FLASH IN NORTHERN SKY FOLLOWED BY DISTANT THUD MELBOURNE AUSTRALIA 18 Feb 1997  12:50am Eastern Std TimePossible UFO crash ?,3/7/1998,-37.813938,144.963425
2/19/1997 20:15,guadelupe,az,,,10,10 sec.,3 adults see a very bright&#44 white&#44 unblinking light approach from W.  Suddenly executes 90 turn to N&#44 slows&#44 dims&#44 disappears suddenly.,11/2/1999,33.37088,-111.962922
2/22/1997 14:21,weston,mo,us,other,10,10sec,Weston&#44 Missouri: observation of WEDGE shaped craft travelling at low altitude at high rate of speed N to S paralleling I-29 toward Kan,1/28/1999,39.4111111,-94.9013889
2/23/1997 00:00,maca&eacute; (brazil),,,circle,20,10-20 seconds,Circle shaped blue craft&#44 moved horizontally in the sky&#44 legt a shimmering trace&#44 then accelerated upwards in amazing speed and vanishe,12/12/2009,-22.38367,-41.782746
2/25/1997 02:00,crystal lake,il,us,sphere,4,3-4 seconds,I was laying on the sofa looking out the window at 2:00am with the Moon and Mars in the sky and all of the sudden I saw an orange-red b,3/7/1998,42.2411111,-88.3161111
2/25/1997 14:20,boiling springs (outside of&#44 traveling on highway),pa,us,,15,15 sec. approx.,Observed unidentified object apparently following AirlinerMy four year old son and I were returning from shopping at approximately,3/7/1998,40.1497222,-77.1286111
2/25/1997 18:00,skarysko-kamienna (poland),,,triangle,10,about 10 sec,Strange object in Poland &#44 97&#39 winter,2/14/2010,51.114294,20.847783
2/25/1997 20:00,new florence,pa,us,light,1800,30:00,Bright Light in the East Hovering,3/7/1998,40.3802778,-79.0755556
2/26/1997 19:00,london (uk/england),,gb,light,180,3 min.,A LIGHT FOLLOWED AN AEROPLANE AND THEN THEY BOTH VANISHED.I WAS GOING DOWN THE M25.(A MOTORWAY GOING AROUND LONDON) WITH MY DAD.  I,3/7/1998,51.514125,-0.093689
2/26/1997 20:00,mobile,al,us,oval,600,10 min,An oval&#44 dark blue&#44 light blue exaust.,1/28/1999,30.6941667,-88.0430556
2/27/1997 17:23,stanmore (canada),ab,ca,sphere,15,15seconds,heading west to hanna ab hiway9 noticedan object at230.0 at about 20degress above horrizon object appeared to be aspherical shape  very,12/2/2000,51.583333,-111.516667
2/27/1997 20:00,north beach,md,us,other,6,5-6 seconds,Shooting star&#44Air Fision and then a Small&#44Windshield shaped craft appears out of it.,11/20/2001,38.7072222,-76.5313889
2/28/1997 16:00,st. david,az,us,oval,3600,abt 1 hour,Sighted grey metallic saucer with no lights   hovering over the Whetstone Mts.  Watched it for about an hour.,3/7/1998,31.9041667,-110.2136111
2/28/1997 23:00,mesa,az,us,triangle,30,30 seconds,Viewed a light yellowish-orange somewhat translucent triangular-shape object with an undulating light.,5/15/2006,33.4222222,-111.8219444
3/1/1997 05:00,clinton,ut,us,circle,14400,4 hours,1997 Ufo in Ogden Utah area&#44 I was standing under it it was huge&#33,2/24/2001,41.1397222,-112.0497222
3/1/1997 12:30,commerce city,co,us,sphere,7200,a few hours,Large number of high altitude white spheres in sky over Commerce City&#44 CO&#44 in 1997,6/3/2010,39.8083333,-104.9333333
3/1/1997 13:00,lockerley (uk/england),,,triangle,10,10 seconds,Bright white isoseles triangle shape seen darting about in the sky&#44 twice.,7/1/2002,51.038201,-1.582512
3/1/1997 21:00,riverside,ca,us,triangle,15,15 seconds,The reports of various UFO events over the Arizona sky on March 13 ofthis year has prompted me to reveal the experience my wife and I h,1/28/1999,33.9533333,-117.3952778
3/1/1997 21:20,louisville,ky,us,fireball,2,2 seconds,A hovering ball of orange light that came back twice,8/5/2001,38.2541667,-85.7594444
3/2/1997 19:00,prairie du sac/merrimac ( between. on hwy. 78),wi,,cross,600,5 to 10 min.,One small object with rotating lights&#44 then a little later a large brilliantly lit object in the shape of a cross with 4 bright lights,3/7/1998,43.293051,-89.734944
3/2/1997 21:00,hemet,ca,us,triangle,900,15 min,My friends and I saw 1 very large&#44 triangular shaped UFO&#44 silently hovering approx: 100 ft in air and about 35 ft away from our car.,8/7/2007,33.7475000,-116.9711111
3/3/1997 02:00,dublin,oh,us,triangle,300,3-5 minutes,Up Close and Personal Triangle UFO sighting in Dublin&#44 Ohio,4/13/2010,40.0991667,-83.1141667
3/3/1997 18:30,sullivan (near),mo,us,light,1800,30 min.,3 lights seen above horizon.  Flickered on and off.  Appeared and disappeared in different places.,1/28/1999,38.2080556,-91.1602778
3/5/1997 00:00,las vegas,nv,us,light,300,5 minutes,Approx. 20 lights in a v-shape which did a double-helix formation downward  It then formed a v-shape and flew overhead&#44 moving South to,1/28/1999,36.1750000,-115.1363889
3/5/1997 14:00,phoenix,az,us,chevron,3600,60 minutes,V-shaped craft observed flying east over Phoenix.,2/18/2001,33.4483333,-112.0733333
3/5/1997 18:10,san francisco,ca,us,oval,120,2 minutes,2 small (about 1 ft. long &amp; 200 ft. away at closest) dark objects circling each other then sped south&#44followed min. later by 2 more.,3/7/1998,37.7750000,-122.4183333
3/6/1997 01:00,rohnert park (sonoma state university),ca,us,sphere,10800,three(3) hours +,I 1st noticed 3 small objects/stars/points &quot;excited state&quot;&#44 were Iscoceles  their locations from each other.  One then vanished&#44 two re,3/7/1998,38.3397222,-122.7
3/6/1997 22:00,virginia beach,va,us,light,2,few seconds,I was laying in my bed watching tv with the windows open and I saw this Bright yellow light fly across the sky then all of a suden It s,3/7/1998,36.8527778,-75.9783333
3/6/1997 23:00,las vegas,nv,us,,10800,2 to 3 hours,I saw the same lights that were over phoenix north of las Vegas while I was working at night .It was about a week to a couple of da,5/29/2012,36.1750000,-115.1363889
3/7/1997 19:00,tacoma,wa,us,disk,120,2 minutes,Object sighted by New Zealand Tourist in Tacoma 7 years ago.,8/11/2004,47.2530556,-122.4430556
3/7/1997 22:50,seattle,wa,us,flash,1,1 sec,Less than a 1 second flash of large blue-white light&#44 climbing slightly on it&#39s path from west to east. .,3/7/1998,47.6063889,-122.3308333
3/8/1997 23:00,jaworzynka (poland),,,cigar,7200,2h,A pinkish gold  blinking light moving up and down and side-to-side at 23:10 p.m. over Bow&#44 A formation of lights went from the southeas,5/24/2005,49.539817,18.869726
3/9/1997 01:00,arizona (desert; on route 66),az,,triangle,7200,2 hours,There were smaller lights flying around the hugh triangle firing lasers and they blew up something.,5/15/2006,34.048928,-111.093731
3/10/1997 10:30,alpharetta,ga,us,triangle,900,hour,Boomerang UFO sits on barn,4/28/2001,34.0752778,-84.2941667
3/10/1997 12:30,virginia beach,va,us,sphere,10,8-10sec.,White&#44 spherical object moving in a NW trajectory&#44 silent&#44 moving extremely fast.,1/28/1999,36.8527778,-75.9783333
3/10/1997 19:30,new york city,ny,us,light,900,15 minutes,Strange lights above New York City,1/28/1999,40.7141667,-74.0063889
3/10/1997 22:00,las vegas (north of),nv,us,light,600,10 minutes,orange orb traveling sse at unknown altitude&#44 pitch black&#44 starry night&#44 VFR&#44 CAVU&#44  totally silent&#44 2 people,5/15/2006,36.1750000,-115.1363889
3/11/1997 18:30,charleston,wv,us,sphere,900,15 minutes,3 bright&#44orange objects with comet-like tails&#44 movingtoward earth&#44 then toward each other&#44 thenhorizontally&#44 east to s.west,3/7/1998,38.3497222,-81.6327778
3/12/1997 09:00,new orleans,la,us,other,10,5-10 seconds,Are you interested in unexplained noises?,3/7/1998,29.9544444,-90.075
3/12/1997 18:20,sunderland (uk/england),,gb,sphere,600,10 mins,Two objects doing imposible manovers,12/14/2004,54.911944,-1.383333
3/12/1997 19:20,hotedrsica (slovenia),,,light,6,6 sec,Formation of approx. 30 glowing objects seen in an unknown type of formation (bird-like). Moving GIF scetch included.,9/12/1999,45.930065,14.139957
3/12/1997 20:09,norfolk,va,us,chevron,240,3-4 minutes,800 foot wide Boomerang shaped UFO floats over head at treetop level&#44 with humming sound-next to Norfolk NAB&#44 Virginia,8/20/2001,36.8466667,-76.2855556
3/12/1997 20:30,terre haute,in,us,triangle,120,2 min,Black Triangular Shaped Craft Sighting,2/14/2008,39.4666667,-87.4138889
3/12/1997 20:40,las vegas,nv,us,chevron,120,several minutes,Las Vegas&#44 Nevada -MARCH 12&#441997  1.5 MILE WIDE CHEVRON  FORMATION OF LIGHTS SILENTLY GLIDES W. TO E. AT 8:40 pm.,3/11/2006,36.1750000,-115.1363889
3/12/1997 21:50,glendale (ssw of),az,us,light,1814400,over 3 weeks,Stationary object SW of the Phoenix AZ area seen over several nights. Quit appearing after the Mar 13 incident in Phoenix.,3/7/1998,33.5386111,-112.1852778
3/12/1997 22:20,death valley,nv,,triangle,7200,2 hours,((HOAX??))  This World Nuclear Missiles Must Stop  500 Lights On Object0: Yes,2/1/2007,36.532265,-116.932541
3/12/1997 23:00,brentwood,ca,us,formation,30,30 seconds,I saw three lights forming a V shape in the night sky about 300 feet in the air. There was no noise and they were moving slowly in an e,11/1/1998,37.9319444,-121.6947222
3/12/1997 23:00,santa fe,nm,us,other,120,2 minutes,THE TIME IT TOOK PLACE WAS THE DAY BEFORE THE ARIZONA SIGHTS OF MULTIPLE SHIPS.,12/2/2000,35.6869444,-105.9372222
3/13/1997 00:00,scottsdale,az,us,triangle,2400,:40 minutes,2002 submission of March 13th mass UFO sightings over Phoenix,3/19/2002,33.5091667,-111.8983333
3/13/1997 05:30,salt lake city,ut,us,other,40,~40 seconds,bright object&#44 star like&#44 motionless&#44 thenrapid acceleration to SE/SSE,1/28/1999,40.7608333,-111.8902778
3/13/1997 08:00,casa grande (indians hills),az,us,circle,600,10 mins,We SAW THE UFO OF MARCH 13&#441997,2/23/2011,32.8794444,-111.7566667
3/13/1997 10:30,newfoundland,nj,us,oval,300,5 min,Driving N/W on Rt. 23 on the way home from 3rd shift. After passing thru a trarric lite i noticed a glimmer off to the left hand side.,3/7/1998,41.0463889,-74.4355556
3/13/1997 13:30,seattle,wa,us,sphere,20,15-20 seconds,SEATTLE sighting. During daytime same day of the phoenix lights,7/16/2003,47.6063889,-122.3308333
3/13/1997 17:00,lubbock,tx,us,triangle,1200,15-20 minutes,March 1997 Lubbock&#44 Texas a large triangular shaped&#44 lighted object with instruments showing hovered for 15m+...shot away,1/10/2009,33.5777778,-101.8547222
3/13/1997 18:00,prescott,az,us,formation,180,3 mins. approx.,These were individual craft flying in a distinct formation-- absolutely not flares.,2/14/2006,34.5400000,-112.4677778
3/13/1997 18:30,new braunfels,tx,us,triangle,600,10 minutes,Huge black triangle with 7 lights&#44 very silent&#44 right above trees.,4/27/2007,29.7027778,-98.1241667
3/13/1997 18:40,phoenix,az,us,chevron,900,15 min,A huge triangular object slowly drifting over Phoenix&#44 AZ&#44 5 lights traveling probably less than 30 mph.,5/15/2006,33.4483333,-112.0733333
3/13/1997 19:00,scottsdale,az,us,triangle,1800,30 min,I hope it&#39s ours &#33  If not&#44 it&#39s definately &#39someone else&#39s&#39... (and FOR SURE&#44 it&#39s not of human origin) &#33,3/11/2006,33.5091667,-111.8983333
3/13/1997 19:45,gila bend (20 miles east of&#44 on i-8),az,us,light,1200,20 mins,2 large&#44 bright orange/pinkish lights seen south of I-8 over the desert. Went from 2 to 3 to 4 lights.  Small bright objects quickly le,9/12/1999,32.9477778,-112.7161111
3/13/1997 19:45,stanfield,az,us,triangle,600,10 min,3/13/97 7:45p.m.,2/14/2008,32.8825000,-111.9613889
3/13/1997 20:00,phoenix,az,us,chevron,600,10 minutes,&quot;V&quot; shaped black object with 5 lights&#44 passed directlyover our house in Phoenix and didn&#39t make a sound. It&#39s shapewas that of a carpen,3/7/1998,33.4483333,-112.0733333
3/13/1997 20:00,glendale,az,us,diamond,300,5 minutes,I had gone to visit with a friend at about 30 ave. and just north of northern&#44 I arrived at his home and noticed his car was gone&#44 he h,1/28/1999,33.5386111,-112.1852778
3/13/1997 20:00,east mesa /apache junction.,az,,light,120,1 to 2  min,I came home after work at about 9pm 3/13/997.  My children&#44 ages&#44 7&#448&#44&amp; 11&#44 had been in the backyard all evening. When I arrived&#44 they,3/7/1998,33.494212,-111.641248
3/13/1997 20:00,phoenix,az,us,triangle,15,brief,LOOKED LIKE A FORMATION OF PLANES WITH THERE LANDING LIGHTS ON ONLY THERE WAS NO ENGINE NOISE FOLLOWING,3/19/2002,33.4483333,-112.0733333
3/13/1997 20:00,kingman,az,us,formation,360,6 minutes,5 BRIGHT orange lights flying in a V formation,3/7/1998,35.1894444,-114.0522222
3/13/1997 20:00,phoenix,az,us,triangle,1800,20-30 min,V shaped object that flew from the north of phoenix and eventually right over phoenix 3/13/97,6/12/2008,33.4483333,-112.0733333
3/13/1997 20:00,phoenix,az,us,chevron,300,5 min. approx.,An object&#44 consisting of 5 lights&#44 in the shape of an arrow&#44 flew right over my house.,4/2/1999,33.4483333,-112.0733333
3/13/1997 20:00,phoenix,az,us,other,300,5 minuets,a &quot;Flying wing&quot; which fley over my card as i was on I10 heading west,3/16/2000,33.4483333,-112.0733333
3/13/1997 20:00,phoenix,az,us,triangle,300,5 minutes,UFO over Phoenix 1997,8/12/2008,33.4483333,-112.0733333
3/13/1997 20:00,phoenix,az,us,circle,600,10 minutes,From North to South over Camelback mountain High in the Arizona sky Hundreds of citizens see a phenomena of lights Soundlessly&#44 slowly,1/28/1999,33.4483333,-112.0733333
3/13/1997 20:05,phoenix,az,us,,120,several minutes,early evening time object the size of 2 or three junbo jets could see lights invisible no sound moved incredibly slow like a zepplin ba,3/7/2000,33.4483333,-112.0733333
3/13/1997 20:10,tempe,az,us,other,600,5-10min,Phoenix Lights,3/19/2002,33.4147222,-111.9086111
3/13/1997 20:12,prescott,az,us,formation,300,5 min,v formation white lights to start with at long range as it got closer looking through binoculars each light was actually 2 one red one,3/7/1998,34.5400000,-112.4677778
3/13/1997 20:15,prescott,az,us,formation,300,5 minutes +,Chevron formation of five white lights&#44 plus other strange things.,3/2/2004,34.5400000,-112.4677778
3/13/1997 20:15,phoenix (tempe),az,us,light,420,7 min.,5 orange colored lights fall toward earth like fireworks.  Shortly after they hovered in place&#44 pulsating and began moving at odd traje,3/7/1998,33.4483333,-112.0733333
3/13/1997 20:15,black canyon city (5 miles n of),az,us,chevron,120,appx. 2 minutes,Phoenix Lights on I-17 near Sunset Point Rest Area,5/15/2006,34.0708333,-112.15
3/13/1997 20:15,prescott,az,us,formation,600,10 min,Observed five yellow-white lights travelling from NW to NE then turning to S,3/7/1998,34.5400000,-112.4677778
3/13/1997 20:15,phoenix (ahwatukee),az,us,triangle,600,10 min,Sighted red to white horizontal line on the north west horizon. As the object got closer it looked like a 5 light triangle. It passed o,3/7/1998,33.4483333,-112.0733333
3/13/1997 20:15,phoenix,az,us,light,600,10 min,Airline pilot views Phoenix lights from Interstate 10&#44 while driving to work.,4/26/2000,33.4483333,-112.0733333
3/13/1997 20:15,scottsdale,az,us,triangle,300,5 min,Myself&#44 my 12 yr old son and his friend watched a large triangular shape craft with colored lights (red mostly) in chevron design glide,8/28/2002,33.5091667,-111.8983333
3/13/1997 20:20,phoenix,az,us,,10,10 sec,Phx Lights orb,1/31/2004,33.4483333,-112.0733333
3/13/1997 20:20,phoenix,az,us,triangle,480,apx 4-8 min,v of lights over phoenix az.,5/15/2006,33.4483333,-112.0733333
3/13/1997 20:20,northwest tempe,az,,formation,900,15 minutes,We saw 5 red lights&#44 in a V formation&#44 from the north to the south&#44 in a fifteen minute period.,3/7/1998,33.42551,-111.940005
3/13/1997 20:25,buckeye,az,us,sphere,300,5 minutes,Observed a number (3 - 5) of white/yellow lights hovering (suspended) approximately 7 - 10 miles away.  Observed streaking object leavi,3/7/1998,33.3702778,-112.5830556
3/13/1997 20:30,tempe,az,us,light,1200,20 min,Nothing WE have&#44 could have done what we all saw that night.,3/19/2009,33.4147222,-111.9086111
3/13/1997 20:30,phoenix,az,us,triangle,180,3 min.,Another report on the Phoenix lights&#44 but every prospective is important to get the whole picture and or map the object as it decended,2/23/2000,33.4483333,-112.0733333
3/13/1997 20:30,tempe,az,us,formation,300,5 minutes,I was in tempe with a bunch of my friends when we saw a group of about 5-7 lights in the sky. They seemed to stay in the same place. Th,1/28/1999,33.4147222,-111.9086111
3/13/1997 20:30,phoenix,az,us,,300,hour,Phoenix lights were were explained on the Art Bell website by Ed Dames (Dr Doom) many years ago. I would email my copy but it was saved,1/22/2004,33.4483333,-112.0733333
3/13/1997 20:30,goodyear,az,us,unknown,300,5 minutes,The object sat a while in a field next to us&#44 then slowly floated right over us until it disappeared.,3/19/2009,33.4352778,-112.3575
3/13/1997 20:30,phoenix,az,us,chevron,1200,20 minutes,Witnessed the object travel south along Interstate 10 toward Casa Grande,8/5/2001,33.4483333,-112.0733333
3/13/1997 20:30,gila bend (g.b.auxillary field&#44 ),az,us,chevron,1200,20 mins.,At approx. 2015 hrs.flares dropped were close enough that I could see the white smoke as each burned&#44 but the parachutes were not visib,4/26/1999,32.9477778,-112.7161111
3/13/1997 20:30,cass city,mi,us,triangle,900,15min.,My dad and mom was comming home from town after a stop at a grocery store in caro&#44 they head east on deckerville rd. then turned left(n,5/4/2004,43.6008333,-83.1747222
3/13/1997 20:30,chandler (app. 20 miles e/se of phoenix),az,us,triangle,90,1.5 min,My wife and I witnessed a craft passing in front uf us that was close to a mile long.This boomerang/trianglar craft became &quot;transluct&quot;,1/11/2002,33.3061111,-111.8405556
3/13/1997 20:30,phoenix,az,us,formation,300,5 min +,4 orange lights at about 30&#39 elevation looking to the North/North-East. Appeared in a wide trapazoid formation. Very slow moving.,8/5/2001,33.4483333,-112.0733333
3/13/1997 20:30,mt. springs (cooke county),tx,,other,9,9 second,Seven lights in a row 45 degrees  above horizon in early night sky&#44 disappeared one at a time.,6/23/2004,33.48039,-97.043897
3/13/1997 20:30,chino valley,az,us,formation,300,3 to 5 minutes,Observed 5 white lights approaching from thenorthwest at what appeared to be a low levelbut rising as they approached.  3 lights infron,8/5/2001,34.7575000,-112.4530556
3/13/1997 20:30,chandler,az,us,unknown,600,3-10mins,i was driving north on I-10  from gila river indian community.i got on the ramp i-10 north..at queen creek rd.around 8pm or before,9/2/2005,33.3061111,-111.8405556
3/13/1997 20:30,phoenix,az,us,triangle,240,3-4 minutes,Phoenix UFO sighting March 13&#44 1997,1/28/1999,33.4483333,-112.0733333
3/13/1997 20:35,libby,mt,us,light,90,1.5 minutes,fuzzy ball of light  hovers then rapidly streaks  accross the sky in a southernly direction/8:35PM 3/13/97,3/2/2004,48.3883333,-115.555
3/13/1997 20:40,phoenix,az,us,formation,240,4 minutes,I saw seven UFOs apppear in formation then disappear.,8/5/2001,33.4483333,-112.0733333
3/13/1997 20:40,mesa (at mesa community college),az,us,triangle,180,2-3 minutes,LARGE TRIANGULAR OBJECT WITH 5 DIM AMBER LIGHTS (ONE IN EACH CORNER AND 2 MORE NEAR FRONT) MOVED SLOWLY NW TO S-SW WITH NO NOISE.,3/7/1998,33.4222222,-111.8219444
3/13/1997 20:45,phoenix,az,us,triangle,180,3 minutes,Unexplained Arizona Sighting,1/28/1999,33.4483333,-112.0733333
3/13/1997 21:00,phoenix,az,us,triangle,240,4 minutes,My wife and I were walking our dogs on the south side of South Mountain in the mountain park when we saw the ufo come over the mountain,3/19/2002,33.4483333,-112.0733333
3/13/1997 21:00,henderson,nv,us,formation,180,3 minutes,(2) extremely large&#44 dark craft&#44 in formation operating  at a very slow speed in total silence&#44 overhead.,2/14/2008,36.0397222,-114.9811111
3/13/1997 21:00,phoenix,az,us,diamond,300,2 to 5 minutes,I witnessed th &quot;Phoenix Lights&quot; the evening of March 13th 1997 from a distance of one to two miles.,4/16/2005,33.4483333,-112.0733333
3/13/1997 21:00,prescott,az,us,formation,30,30 seconds,Saw 5 bright lights in triangle formation in the northand heading southeast at an extremely fast speed.,3/7/1998,34.5400000,-112.4677778
3/13/1997 21:15,phoenix,az,us,rectangle,600,approx. 10 min.,03/15/1997&#44 21:15 Phoenix&#44 Arizona 20 rectangular objects in &quot;V&quot; formation&#44 performed circular spin&#44 etc.,11/28/2007,33.4483333,-112.0733333
3/13/1997 21:30,sciotoville,oh,us,formation,900,10-15 min,The phoenix lights were also seen in Ohio.,10/31/2008,38.7580556,-82.8913889
3/13/1997 21:30,monterey,ca,us,sphere,300,3-5 minutes,March 13&#44 1997 Monterey&#44 CA UFO incident,10/28/2002,36.6002778,-121.8936111
3/13/1997 22:00,glendale,az,us,fireball,7200,2 hours,Fireball on the top of  mountain behind Luke Air Force Base&#44 AZ.,5/29/2011,33.5386111,-112.1852778
3/13/1997 22:00,ottawa (canada),on,ca,light,7,5-7 seconds,light movement none like i&#39ve seen before.,5/24/2005,45.416667,-75.7
3/13/1997 22:00,tucson,az,us,light,600,10 minutes,We saw unidentified lights that didn&#39t blink or make noise and moved very&#44 very quickly.,10/30/2006,32.2216667,-110.9258333
3/13/1997 22:00,phoenix,az,us,other,1800,30 minutes,This was real&#44 and not flares&#33,7/5/2005,33.4483333,-112.0733333
3/13/1997 22:00,dateland,az,us,circle,600,10 minutes,Hovering Light Formation in Southwest Arizona in March 1997,8/24/2010,32.7963889,-113.5402778
3/13/1997 22:00,casa grande,az,us,formation,8,8 seconds,Phoenix lights witnessed in Casa Grande&#44 AZ,4/16/2005,32.8794444,-111.7566667
3/13/1997 23:00,fresno,ca,us,formation,60,40 to 60 seconds,AS I SAT IN MY PARENT&#39S BACK YARD FACING DIRECTLY SOUTH&#44 I NOTICED 6 LIGHTS SIDE BY SIDE MOVING AT A FARELY FAST PACE.  THEY WERE SIDE,9/17/2000,36.7477778,-119.7713889
3/13/1997 23:59,phoenix,az,us,other,120,couple minutes,The phoenix lights,5/2/2003,33.4483333,-112.0733333
3/14/1997 01:35,dunnellon,fl,us,light,1800,about 30 minutes,It was about 1:35 in the morning&#44and i wasspending the night at a friends house&#44 wegot bored because there was nothing to do&#44so we went,1/28/1999,29.0488889,-82.4611111
3/14/1997 18:15,trivandrum&#44 kerala state (india),,,light,60,1 minute,Fast moving bright light seen over Trivandrum&#44 India.,8/7/2007,8.567752,76.944066
3/14/1997 19:00,sahuarita,az,us,triangle,10,10 seconds,Very large cone-shaped object appeared out of nowhere,2/18/2001,31.9575000,-110.955
3/14/1997 20:00,tonopah,az,us,sphere,1500,25 minutes,I-10 W of Tonapah AZ and Highway 85 S I watched3 golf ball sized lights &quot;QQQ&quot; being observed by ajet (half the size of a tack head) 20:,3/7/1998,33.4936111,-112.9363889
3/14/1997 21:00,los angeles,ca,us,triangle,40,40 seconds,Silent&#44 gliding boomerang with no lights,9/15/2005,34.0522222,-118.2427778
3/14/1997 22:30,colorado springs,co,us,triangle,10,10 seconds,Triangular light formation in Colorado.,3/19/2009,38.8338889,-104.8208333
3/15/1997 01:00,san tan valley,az,,light,18000,5 hrs,I specifically recall a grey touching my forehead with one long skinny finger to put me back under?,1/5/2011,33.170278,-111.572222
3/15/1997 01:00,kalamazoo,mi,us,flash,2,seconds,Immense red flash like a very bright red lightning flah.  It lit up the whole sky&#44 the ground and my truck.  It traveled from the groun,1/28/1999,42.2916667,-85.5872222
3/15/1997 02:00,woodinville,wa,us,triangle,30,30 sec,Perfect triangle red &amp; green light each tip. Teardrop like cutouts in each wing. A raised diamond shape in front. Moved very slowly for,9/17/2000,47.7544444,-122.1622222
3/15/1997 10:30,buena vista,co,us,oval,600,10 mins,White oval with gold light/energy over mountain in daylight,5/24/2005,38.8422222,-106.1305556
3/15/1997 18:00,miami,fl,us,light,240,4minutes,a beam of light came out from this super light.,11/28/2007,25.7738889,-80.1938889
3/15/1997 19:00,bossier parish (southern),la,,rectangle,1200,15-20 mns.,((This is the seventh  of several of these experiences&#44 all of which I now feel are connected. If visitors to this site have any questi,2/16/1999,32.755132,-93.662324
3/15/1997 21:00,san diego,ca,us,disk,900,15 minutes,UFO seen at Camp Pendleton&#44 San Diego&#44 CA.,7/3/2013,32.7152778,-117.1563889
3/15/1997 21:30,iron river (17 miles west of),mi,us,light,1200,20 minutes,I was at our cabin with one of my friends&#44 and we saw two white lights zip through the woods  at nighttime.,8/5/2001,46.0927778,-88.6422222
3/15/1997 23:55,oakton,va,us,delta,15,15 seconds,I saw two large bright round white lights moving forward together but keeping the same distance apart.  Then the two lights changed dir,3/7/1998,38.8808333,-77.3011111
3/16/1997 11:30,yuma (desert&#44 on olgiby rd.&#44 16 mi. ne. of  yuma),az,us,triangle,2700,45min.,about one mi. from front light to back and across about 10 t0 15 mi. from us. im just now able to talk about it.,5/24/1999,32.7252778,-114.6236111
3/16/1997 17:39,osterville,ma,us,sphere,5,5 seconds,spotted horizontally traversing circular/spherical object,3/7/2000,41.6283333,-70.3875
3/16/1997 18:48,mountain view,ca,us,sphere,120,2 minutes,While travelling eastbound on Moffet Blvd at 6:48p.m. I observed what I first thought to be a plane.  The object was spherical in shape,1/28/1999,37.3861111,-122.0827778
3/16/1997 20:30,salton sea,ca,,other,2700,45 minutes,Saw across the Sea a big red flash&#44 then white-orange orbs appear&#44 about 10-15&#44 not moving&#44 all in a straight line except for one which,1/28/1999,33.253533,-115.710179
3/16/1997 21:00,maricopa (southwest of town),az,us,light,300,4-5 min.,8-10 bright stationary orange lights&#44 plus a small line of 6-8 smaller  bluish-white lights which flashed in succession from l. to r.&#44,9/28/2002,33.0580556,-112.0469444
3/17/1997 01:30,calgary (canada),ab,ca,triangle,180,3 minutes,Phoenix Lights observed in Calgary Canada 4 days after the initial sighting,12/12/2011,51.083333,-114.083333
3/17/1997 08:30,marske-by-sea/redcar/cleveland (uk/england),,,sphere,20,20 seconds,a glowing orb close up,8/5/2001,54.591928,-1.019708
3/17/1997 09:00,lincoln city,or,us,triangle,600,9 to 10 minutes,Lights on horizon - object(s) approached&#44 main craft  opened/smaller craft &quot;played&quot; returned to original &amp; hover above us,10/30/2006,44.9583333,-124.0166667
3/17/1997 10:00,aquaduct (near&#44 over desert&#44 before entering california),ca,,triangle,120,1-2 min.,Flying Westward in a UAL plane over the desert near the aquaduct before entering CA&#44 another UAL plane approached and passed beneath us,3/7/1998,33.770781,-116.445143
3/17/1997 20:00,wickenburg,az,us,light,1200,20 minutes,A bright&#44 silent&#44  white circular light hovered for about 20 minutes and then sped off and disappeared.,12/7/2006,33.9686111,-112.7288889
3/17/1997 20:35,mesa,az,us,chevron,5,5 secs,UFO over Phoenix...over my back yard.  March 1997,7/11/2000,33.4222222,-111.8219444
3/17/1997 21:00,tucson,az,us,triangle,10,10 seconds,25 miles west of Tucson&#44 Az.  Strange orange balls in a triangle pattern&#44 in march of 1997.,1/22/2004,32.2216667,-110.9258333
3/17/1997 21:00,san diego,ca,us,circle,1200,20 minutes,phoenix lights over san diego,10/30/2006,32.7152778,-117.1563889
3/19/1997 20:45,cleveland,tx,us,cigar,3600,1hr,saw 7 objects hoving in the sky for at least and hr ..theysaw some kind of planes chasing,8/28/2002,30.3411111,-95.0852778
3/20/1997 00:00,phoenix,az,us,other,600,10 minutes,V shaped object with lights on the wings buzzing too low over the highway...,10/10/2011,33.4483333,-112.0733333
3/20/1997 13:00,santa fe,nm,us,triangle,28800,8 hours,Was MACHINED by ME ((name deleted)) at LOS ALAMOS NATIONAL labs.  Triangle of BERYLIUM METAL.,11/26/2003,35.6869444,-105.9372222
3/20/1997 20:00,spencerville (canada),on,,light,2700,45 minutes,Bright red-orange light,12/2/2000,44.843305,-75.546362
3/20/1997 20:25,whitefish,mt,us,light,10,5-10 secs,orange lights (not shaped likeaircraft) about 1000 feet overheadfollowed closely by jet (wingsvisible naked eye).  Only soundsof one ai,3/7/1998,48.4111111,-114.3366667
3/21/1997 21:00,yucaipa,ca,us,fireball,120,2 minutes,A single orange glowing object moving East at a steady speed.  Began to drop flaming objects like the shards from a welders torch.  Aft,3/7/1998,34.0336111,-117.0422222
3/22/1997 16:00,scottsdale,az,us,circle,600,10 minutes,Daughter and I saw two round craft forming triangle with North Star&#44 then dancing around eachother and then zoomed off into deep space,6/12/2008,33.5091667,-111.8983333
3/22/1997 20:00,mcdonough,ga,us,light,2,1-2sec,I saw the UFO behind Comet Hail Bop&#44it came frome behind and below the comet&#44almost like a sling shoot.,3/21/2003,33.4472222,-84.1469444
3/22/1997 21:00,lake geneva,wi,us,light,600,10 min,Near moon. small light (cover with thumb) camefrom Southeast at extremly fast speed. As itapproached approximate even with moon seemed,3/7/1998,42.5916667,-88.4333333
3/22/1997 21:30,unadilla,ny,us,light,2,2 sec,I have video of strange light in SE sky over central NY 21:30 est 03/22/97,3/7/1998,42.3252778,-75.3127778
3/22/1997 22:30,stevens point,wi,us,crescent,37800,1 1/2  hours,A hazey orange object hovered in the evening sky.It moved&#44 in what looked like&#44 a crescent shapefrom the upper North-East to the North-,3/7/1998,44.5236111,-89.5744444
3/23/1997 16:30,albuquerque (over&#44 from tent rocks),nm,us,other,8280,2.30 hr.,have photograph  2&#441/4 negative 250mm Zeis len.some detail not much. object hovered over albuquerque shining in the afternoon light.,1/28/1999,35.0844444,-106.6505556
3/23/1997 19:37,tigard,or,us,diamond,1,1 second,Large&#44 black&#44 diamond-kite shaped object,1/28/1999,45.4313889,-122.7702778
3/23/1997 20:30,nederland,co,us,other,60,1 minute,Spring Solstice&#44Lunar eclipse&#44 time of the comet&#44evening around open fire&#44 gathering 20 adults.,2/16/2000,39.9613889,-105.5102778
3/23/1997 21:00,nanoose bay (canada),bc,ca,other,180,2 to 3 minutes,D shape&#44 not delta&#44  with red strip &quot;tail lights&quot; during lunar eclipse,11/3/2005,49.25,-124.183333
3/23/1997 21:45,nederland,co,us,other,120,2 minutes,Group of Velebrators of Vernal Equinox are visited by dimmensional craft .Sunday evening&#44 a group gathered to welcome in the spring whi,3/7/1998,39.9613889,-105.5102778
3/24/1997 23:40,manassas,va,us,formation,25,20-25 secs.,Seen 4 lights&#44 high speed&#44 very high altitudein the Manassas&#44 VA area.,3/7/1998,38.7508333,-77.4755556
3/25/1997 20:32,stockton,ca,us,diamond,1500,25 minutes,A triangle shaped object with three orangish red lights&#44  was silent and large&#44 that was low to the ground.,2/14/2008,37.9577778,-121.2897222
3/26/1997 22:10,owings mills,md,us,light,300,5 minutes,Bright white object observed to the Westat about treetop level&#44 gained altitude andflew off silently,3/7/1998,39.4194444,-76.7805556
3/26/1997 22:30,winslow,az,us,triangle,2400,30-40 minutes,Triangle craft  positioned over Winslow&#44 AZ for 30-40 minutes,6/12/2008,35.0241667,-110.6966667
3/26/1997 22:30,huron,oh,us,circle,3,3 seconds,2 UFO&#39s sited at 10:30 PM Eastern time comingfrom Canada over Huron&#44 Ohio moving at a veryfast rate of speed&#44 in unattached but similar,3/7/1998,41.3950000,-82.5552778
3/27/1997 01:00,ann arbor,mi,us,light,5,5 seconds,a red/orange flashing light that streaked aross the sky and took a 90 degree left turn.,3/7/1998,42.2708333,-83.7263889
3/27/1997 01:03,williston,fl,us,sphere,120,2 minutes,I was standing out side looking at Hail-Bop&#44 when I saw a huge sphear of light fly about 50 ft. off the ground and burn a hole through,3/7/1998,29.3872222,-82.4469444
3/27/1997 16:00,sun prairie,wi,us,,20,20 sec.,Woman (bird watcher) sees tiny white (or silver) disc in clear blue sky.  Obj. does 180 deg. turn&#44 accelerates&#44 climbs from sight.,11/2/1999,43.1836111,-89.2136111
3/27/1997 20:10,carlisle,pa,us,formation,120,2 minute,An object that looked like a satillite&#44 suddenly became bright when we blinked a flashlight at it.It was joined by 7 others that flew i,3/7/1998,40.2013889,-77.1891667
3/27/1997 20:40,springfield,mo,us,disk,90,60 - 90 secs.,UFO flew over Spg. MO near Glenstone and Grand on the very night of the Lunar Eclipse and Hale-Bopp.,6/12/2008,37.2152778,-93.2980556
3/27/1997 21:00,palm springs,ca,us,light,2700,45 minutes,March 1997&#44 two bright lights that hovered about 45 minutes&#44 zoomed forward&#44 then zoomed toward comet.,10/31/2008,33.8302778,-116.5444444
3/27/1997 22:00,yuma,az,us,sphere,20,20 sec,2 reports - UFO over Yuma 1997 and UFO at Cape Kennedy 1960&#39s.,10/8/2007,32.7252778,-114.6236111
3/28/1997 16:00,carmichaels,pa,us,disk,180,1-3 minutes,Saw in clear skies long&#44 silver&#44 disc shapedobjecthigh in the sky. Flew over head of meand my witness. Object was silent&#44 had no visibl,3/7/1998,39.8966667,-79.9747222
3/28/1997 22:00,houston,tx,us,sphere,120,2 min,SMALL GLOBE&#44 ABOUT THE SIZE OF A TENNIS BALL&#44 ORANGE/GOLD IN COLOR.  SIGHTING WAS MADE AT NIGHT&#44 WITH NAKED EYE.  OBJECT FLEW THROUGH T,1/28/1999,29.7630556,-95.3630556
3/29/1997 20:00,phoenix city,al,,,12420,3.45 hrs.,CLOSE ENCOUNTER/CAUGHT ON VIDEO on march 29 1997 I lost over 3 hrs.while filming hale bop&#44(CAPTURED CRAFT&#44BEINGS ON VIDEO.)I THOUGHT I,1/28/1999,32.470976,-85.000765
3/30/1997 00:45,cobleskill,ny,us,light,240,4 minutes,Looking east&#44 low in the sky&#44 a bright orange circular figure was just &quot;sitting&quot; there.,5/24/2005,42.6777778,-74.4858333
3/30/1997 20:30,shallotte,nc,us,formation,20,15-20 seconds,9-10 orange objects flying in V formation&#44leader drops down to form W &#44all vanish within seconds. Watching Hale-Bopp&#44 both girlfriend a,11/1/1998,33.9730556,-78.3861111
3/31/1997 21:00,port coquitlam (canada),bc,ca,triangle,180,2-3 minutes,Boomerang shaped craft sighting in British Columbia Canada 03/31/97,4/27/2007,49.266667,-122.783333
3/31/1997 21:00,juneau,ak,us,light,7200,approx  2hrs,A friend and I saw a strange low altitudebright object flashing orange and greenrotating colors on Easter night in Juneau&#44Alaska. When,3/7/1998,58.3019444,-134.4197222
3/31/1997 21:30,jasper/hinton aiport (canada),ab,,sphere,900,15minutes,4ships&#44 one comet&#44 and a bright light out of no where,12/2/2000,53.319074,-117.753322
4/1/1997 01:00,foster,va,us,cigar,120,2 minutes,From Halle-Bopp&#39s distance&#44 a huge ship sped into the atmosphere&#44 slowed silently and closely overhead&#44 and zoomed back into space.,8/5/2009,37.4527778,-76.3852778
4/1/1997 04:00,houston,tx,us,other,120,1-2 minutes,Large Bus sized cloud - emanating several beautiful colors from center but not making it past outer edge of the cloud 2 minute sighting,10/7/2003,29.7630556,-95.3630556
4/1/1997 10:00,round rock,tx,us,triangle,900,15:00,We never heard any aircraft noises.,8/28/2002,30.5080556,-97.6786111
4/1/1997 18:30,monument valley,ut,,light,15,15sec,RUN OFF THE ROAD DRIVING SOUTH INTO MV&#44UT BY A VERY BRIGHT LIGHT-SILENT,3/7/2000,37.004245,-110.173478
4/1/1997 20:00,singapore,,,disk,5,5 seconds,i saw this couple of years ago. never know abt this site until recently. i was staring at the skys for stars that nite&#44 suddenly&#44 i saw,8/28/2002,1.352083,103.819836
4/1/1997 20:10,scarborough (canada),on,ca,triangle,30,30 sec.,Mom &amp; 3 daughters see &quot;rounded&#44 triangular&quot; obj. w/ approx. 20 lights on leading edge streak overhead to S. Bigger than fist overhead.,11/2/1999,43.75,-79.2
4/1/1997 21:00,homestead,fl,us,unknown,7200,2 hours,Red lights along the side&#44 white light in front&#44  in a search-like pattern: slow over water&#44 very fast over land.,6/20/2005,25.4683333,-80.4777778
4/1/1997 22:00,sedona,az,us,sphere,300,5 minutes,bright red pulsing orb that performed anti-gravity manuevers&#44 seen from first plateau at Cathedral Rock... It was a little north of whe,4/2/1999,34.8697222,-111.7602778
4/1/1997 22:00,santa fe,nm,us,unknown,10,10 seconds,1997 Santa fe&#44 MN A enormous &quot;metropolis&quot; looking ship landing and our memories wiped away&#44 lost time,8/7/2007,35.6869444,-105.9372222
4/1/1997 23:05,brush creek,tn,us,unknown,45,approx.  45 sec.,The object came up over a group of trees at what seemed to be a very low altitude. Proceeded NNE until I guessed it to be somewhere nea,4/2/1999,36.1172222,-86.0277778
4/2/1997 20:15,lebanon,mo,us,sphere,2,a few secs.,A giant red ball of light( about 5 time the size hale-bopp was)flew across the sky at well over 1000MPH.,3/7/1998,37.6805556,-92.6636111
4/3/1997 01:35,port wentworth,ga,us,other,300,5 minutes,object travelled at approx 800feet. moving north to south over savannah international airport at about 500 mph. no engine noise or exha,3/7/1998,32.1488889,-81.1633333
4/3/1997 17:30,seattle,wa,us,other,240,2-4min,I was on highway 520 going home and saw a black&#44 silent &quot;elongated key&quot; shape traveling south over lake WA dissappered (cut into clouds,1/28/1999,47.6063889,-122.3308333
4/3/1997 20:45,melbourne (vic&#44 australia),,au,egg,10,10 seconds ?,At aprox. 20.45 I noticed 2 light emitting pinkish egg shaped objects n/w of my position. They were aprox 50 miles away travelling extr,3/7/1998,-37.813938,144.963425
4/3/1997 21:00,phoenix (far west),az,us,oval,300,5min,it was a bright light which moved kind of fast&#44 it was making a humming sound which hummed for a couple of seconds then it was silenced,11/20/2002,33.4483333,-112.0733333
4/3/1997 21:00,kosciusko,ms,us,light,300,5 minutes,Flashing Lights Seen Over Treeline in Kosciusko&#44 MS 1997,5/2/2003,33.0575000,-89.5875
4/4/1997 01:00,regina (canada),sk,ca,fireball,6,1 and a half hours,I was driving down a stretch of highway&#44 just outside of regina. I was about an hour or so from reaching moosejaw. With me was my mothe,8/11/2004,50.45,-104.616667
4/4/1997 02:15,atlanta,ga,us,sphere,240,4 minutes,Daytime sighting of spheres over Midtown Atlanta.,8/11/2004,33.7488889,-84.3880556
4/4/1997 20:30,winsted,ct,us,,5,5 sec.,Man sees &quot;movement&quot; in E sky&#44 notices 7-9 faint orange lights in &quot;boomerang&quot; formation.  Lights move from E to NW sky in 5 sec..,11/2/1999,41.9211111,-73.0605556
4/5/1997 14:00,fairhope,al,us,other,30,30 seconds,Witness observes tire-shaped object w/windows.,1/28/1999,30.5227778,-87.9033333
4/5/1997 14:00,fairhope,al,us,circle,60,1 minute,Man walking dog sees tire-shaped object w/windows. No sound&#44 no animal reaction.,9/26/1998,30.5227778,-87.9033333
4/5/1997 19:50,randle (near),wa,us,light,45,45 seconds,Large bright object moving horizontal in the evening sky&#44 very low&#44 made no noise.,3/7/1998,46.5352778,-121.9558333
4/7/1997 05:30,colorado springs,co,us,cylinder,300,5 minutes,Dark.  Between Fontaine and Drennan Rd. A tall&#44 brightly litobject descended in field near reservoir west of Powers Rd.  Tieredwith mul,3/7/1998,38.8338889,-104.8208333
4/7/1997 14:00,milwaukee,wi,us,other,300,5 minutes,Strange objects descend to tree tops&#44  cruise  across tree tops and vanish into Lake Michigan.,8/5/2001,43.0388889,-87.9063889
4/7/1997 17:00,austin,tx,us,triangle,1800,30 mins,I was driving northbound on I-35&#44 and was around 5 miles south of Austin when I noticed an intensely bright white light far ahead on th,1/10/2009,30.2669444,-97.7427778
4/8/1997 19:45,sonoma,ca,us,chevron,4,4 sec.,Extremely massive matte grey/black boomerang with no center section;  jets scrambled; no lights&#44 possible aura.,5/11/2005,38.2919444,-122.4569444
4/8/1997 20:00,las vegas,nv,us,rectangle,15,15 sec,large&#44 erratic&#44 black object&#44 movement reminiscent of paper falling&#44 almost invisible edge on.,9/26/1998,36.1750000,-115.1363889
4/9/1997 00:00,sarnia (canada),on,ca,unknown,30,30 seconds,On this particular night my sister and I went out to our side porch to have a cigarette when she noticed something suddenly appear to t,12/2/2000,42.966667,-82.4
4/10/1997 00:30,little rock (east of),ar,us,disk,4,4 seconds,My son saw a craft with 8 white lights under it as it flew right over our car about 150 feet  above  us .,5/12/2009,34.7463889,-92.2894444
4/10/1997 01:30,tompson,ga,,light,14400,4 hrs.,At around 1:30 am. we saw a light searching the top of the trees.We discounted it as a hellicopter of poachers.After aboout an hour&#44hou,3/7/1998,33.470693,-82.504573
4/11/1997 02:30,monreal (canada),pq,,disk,40,40 seconds,two seperate UFO sightings&#44 moments apart,12/2/2000,45.50867,-73.553992
4/11/1997 21:15,houma,la,us,circle,10,10 seconds,I WAS OUTSIDE OF MY HOME VIEWING THE COMET&#44 AN OBJECT CROSSED MY LINE OF SIGHT. THE OBJECT WAS ROUND&#44AT FIRST I THOUGHT THAT IT WAS A B,3/7/1998,29.5955556,-90.7194444
4/12/1997 23:15,monrovia,ca,us,formation,60,about 1 minute,Three (3)objects flying over Monrovia,3/7/1998,34.1480556,-117.9980556
4/13/1997 19:07,san diego,ca,us,light,6,4-6sec,4/13/97 approx.7:06pm  I video taped an object flying through the tail of the Hale Bopp comet.,9/24/2003,32.7152778,-117.1563889
4/14/1997 02:15,edison,nj,us,triangle,50,50 seconds,Large&#44 triangle shaped ufo that emanates light at each corner&#44 moves on straight a straight linear axis while in 360 degree rotation.,10/12/2001,40.5186111,-74.4125
4/14/1997 18:00,big bear city,ca,us,oval,60,one minute,The object hovered over the airport then disappeared.,3/17/2004,34.2611111,-116.8441667
4/15/1997 01:00,white mountains,az,,other,7200,2 hours,one object was in the shape of the number six on a piece of dice.,2/18/2001,33.910604,-109.585093
4/15/1997 01:30,fullerton,ca,us,changing,1800,30 minutes,the object made no noise&#44as it changed colors&#44and hovered in complete silence until it was ready to move.,5/4/2004,33.8702778,-117.9244444
4/15/1997 02:30,plainwell,mi,us,diamond,300,5 mins.,Diamond-shpae object in the Southeastern sky&#44 heading northwest at a underterminate speed.,10/2/1999,42.4400000,-85.6488889
4/15/1997 05:40,atwater,ca,us,unknown,600,10 mins,Very bright light hovering over central california,3/19/2009,37.3477778,-120.6080556
4/15/1997 10:00,hawthorne,ca,us,light,2,2 seconds,A light flashed by a man at close range.,6/9/2009,33.9163889,-118.3516667
4/15/1997 13:00,south point,oh,us,egg,600,10 minutes,I and a co-worker were traveling on Route 52&#44 just past the bridge into Ashland&#44 Kentucky.  A large&#44 silent&#44 matte silver object appear,1/28/1999,38.4177778,-82.5863889
4/15/1997 22:00,lincoln,ne,us,sphere,1200,20 min,On a spring night in 1997 I was sitting in a car at a park with a friend talking.  I would periodically look out my window for no reaso,5/24/1999,40.8000000,-96.6666667
4/15/1997 22:00,charlotte,nc,us,unknown,10,10 sec,In mid conversation we both looked up  to the sky simultaniously. We  saw  what we thought was a  shooting star  very high in the eveni,6/12/2008,35.2269444,-80.8433333
4/15/1997 22:30,harrisburg (area),pa,us,formation,1200,20 min,Formation of lights observed over Three mile Island area. Exactly the same formation and sequencing of lights as seen in Pheonix about,8/10/1999,40.2736111,-76.8847222
4/15/1997 22:30,bakersfield,ca,us,light,2,2 seconds,I was looking up at the sky for Hale-Bop&#44when from the south a round yellowish light zoomed across the sky at a very high speed.,3/7/1998,35.3733333,-119.0177778
4/15/1997 22:45,coolidge/casa grande (between),az,,light,600,10 minutes,On different nights in April a co-worker and I were on our way home from work. I saw some lights in the sky and he thought they were li,1/28/1999,32.995459,-111.535528
4/17/1997 17:30,okanogan,wa,us,,3,3 sec.,Woman near Tunk(?) Valley sees large&#44 very bright ball of light streak down out of the sky.  &quot;Layers&quot; of light:  green&#44 red&#44 green.,11/2/1999,48.3613889,-119.5822222
4/17/1997 20:23,west memphis,ar,,light,60,1 minute,Two lights merge together due south thenproceed rapidly to the southwest where theydisappear at the horizon,3/7/1998,35.149534,-90.04898
4/17/1997 22:45,lake degray,ar,,fireball,40,30 to 40 sec,Just found your sight and saw listed a sighting from Arkansas (4/17/97 22:45 Bismarck/Caddo Valley (between) AR Light 30 seconds Orange,4/27/2007,34.239636,-93.19303
4/17/1997 22:45,bismarck/caddo valley (between),ar,,light,30,30 seconds,Orange burst of light that sped out over the lake,9/28/2002,34.732892,-93.056238
4/18/1997 04:20,hartford,sd,us,,3,3 sec.,Man sees a large&#44 white disc in the night sky.  Obj. splits into 2 smaller orange orbs&#44 one of which maneuvers&#44 then 2 orbs rejoin&#33,11/2/1999,43.6230556,-96.9422222
4/18/1997 07:05,dallas,tx,us,diamond,900,15 minutes,Looking East&#44 saw bright red light descendingdown thru cloud layer&#44 then back up into clouds&#44repeating twice. Red light had a diamond s,3/7/1998,32.7833333,-96.8
4/18/1997 20:40,cleveland/euclid,oh,,triangle,120,2min,It was dark and the craft flew slowly over us&#33 There was no sound at all coming from it.It had round lights on the bottom of it and app,2/23/2000,41.552041,-81.551415
4/18/1997 23:59,tampa,fl,us,triangle,300,5 minutes,ET Stops for Big Gulp?,5/15/2006,27.9472222,-82.4586111
4/19/1997 01:30,reno (north of),nv,us,other,300,4 to 5 minutes,When first seen&#44 it was a huge&#44 brilliant white&#44 &quot;bow-tie&quot; shaped object which exploded into a much larger sphere filled with red&#44 gree,9/26/1998,39.5297222,-119.8127778
4/20/1997 02:00,carlinville,il,us,other,3600,1 hour,In the night&#44 I was awoken by the prescence of a groteque&#44 glowing ship&#44 with a glow as so sinister in a cloak of shadows IT was with.,7/25/2004,39.2797222,-89.8816667
4/20/1997 04:00,reno,nv,us,,5,5 sec.,Couple in hotel room witness a very bright&#44 white light streak from E sky to N.  VASTLY faster than any aircraft.  Unblinking.,11/2/1999,39.5297222,-119.8127778
4/20/1997 04:28,greentown,in,us,formation,1200,20 mins,4 UFO&#39s spotted&#44 In Northwest Sky&#44 near the Big Dipper constellation. They all moved in roughly the same direction.(N-NE),3/7/1998,40.4780556,-85.9666667
4/20/1997 19:00,billings,mt,us,light,600,10 minutes,One arc light over billing montana.,12/20/2012,45.7833333,-108.5
4/20/1997 19:30,penryn (uk/england),,gb,sphere,120,2 minutes,Mir incident,12/9/2000,50.166667,-5.1
4/20/1997 20:05,lakewood,wa,us,,3,3 sec.,Man sees 5 prominent shafts of &quot;emerald green&quot; light in N sky radiating in a &quot;fan pattern.&quot;  Seemed to come from one point in the sky.,11/2/1999,47.1719444,-122.5172222
4/20/1997 23:00,las vegas,nv,us,light,3,2-3 seconds,zig zagging light in the sky,2/22/2002,36.1750000,-115.1363889
4/21/1997 20:40,stanwood,wa,us,,3,3 sec.,2 males witness an extremely bright light descend in W night sky.  5 times size of bright star.  80 deg. angle of descent.  No sound.,11/2/1999,48.2413889,-122.3694444
4/21/1997 20:40,la conner,wa,us,,20,20 sec.,Woman sees extremely bright&#44 oval shaped obj. streak down out of a clear evening sky to the W.  1/4 dia. of full moon.,11/2/1999,48.3888889,-122.495
4/21/1997 21:20,los angeles,ca,us,,10,3 -10 sec.,Man noticed a peculiar &quot;star-like&quot; obj. in sky; suddenly accelerated and moved N to S VERY fast.  Obj. zigzagged twice&#44  disappeared.,11/2/1999,34.0522222,-118.2427778
4/22/1997 00:34,worcester,ma,us,egg,30,30seconds,It was a bright white/Yellow light&#44 moving at an incredible speed.  Too fast for any plane Went from west to East&#44 The White light woul,3/7/1998,42.2625000,-71.8027778
4/22/1997 01:00,spokane,wa,us,light,1200,20 minutes,Large bright red light&#44 size of Venus at its brightest&#44 observed over Spokane&#44 Wa. at 1:00 a.m. on April 22&#44 for about 20 minutes. Appe,3/7/1998,47.6588889,-117.425
4/23/1997 00:05,seattle,wa,us,,2,2 sec.,Attorney/public employee sees peculiar white light move across cloudy sky very rapidly.  &quot;Looked like a lightbulb.&quot;  Flew behind cloud.,11/2/1999,47.6063889,-122.3308333
4/23/1997 18:00,guntersville,al,us,oval,120,2min,new glass like craft seen,2/14/2008,34.3580556,-86.2947222
4/23/1997 19:30,houston,tx,us,triangle,1200,20 minutes,Stationary hourglass-shaped object that appeared to be made of glass,4/27/2003,29.7630556,-95.3630556
4/23/1997 21:00,orlando,fl,us,light,50,45-50 seconds,bright light travelling east to west veryhigh in the sky similar to headlights comingthrough fog then disappeared suddenly,1/28/1999,28.5380556,-81.3794444
4/23/1997 21:30,norwich (uk/england),,gb,light,180,3min,Bright light floating in sky for 2minutes then slowly moved off and suddenly accelerated out of sight.,8/5/2001,52.633333,1.3
4/24/1997 01:00,clarion,pa,us,light,120,~2:00 min.,It was a partly cloudy night in April 1997&#44 the thursday following Easter Sunday.  My two friends and I were hanging out on the roof of,1/28/1999,41.2147222,-79.3855556
4/24/1997 21:30,coos bay,or,us,sphere,120,2 min.,Woman looking at stars in E sky sees a &quot;dark tan circle of flames&quot; moving to the N.  10 min. later&#44 same obj. going S;  closer&#44 larger.,11/2/1999,43.3666667,-124.2166667
4/24/1997 21:45,new brighton,mn,us,triangle,2700,45 minutes,20-35 triangular shaped craft sighting.Bright flashing lights at corners.,3/7/1998,45.0655556,-93.2016667
4/24/1997 23:00,depoe bay,or,us,,7200,2 hrs.,Group of 8 women witness complex light moving dramatically in night sky.  Light moves over sea&#44 joined by 2nd light&#44 both disappear.,10/19/2011,44.8086111,-124.0619444
4/25/1997 01:45,delray beach,fl,us,light,300,5 minutes,Single white light changes to multiple sources with red light&#44 splits up. Red light moves differently and sparkle type exhaust noticed.,7/4/2012,26.4611111,-80.0730556
4/25/1997 23:59,new york city (brooklyn),ny,us,other,1200,15-20 minutes,Shape changing object,6/4/2004,40.7141667,-74.0063889
4/27/1997 01:00,san-carlos mountains,az,,light,420,hour,A friend who hauls water from an artisian well on the reserve told us about her {friends}&#44 in the mountains. We were on vacation in Phe,9/26/1998,33.570331,-110.573716
4/28/1997 00:25,williamston,sc,us,triangle,180,3 mins.,20ft. from the road and 150ft. up a trianguler craft was hovering silently.,6/6/2000,34.6183333,-82.4780556
4/28/1997 22:00,houston,tx,us,light,30,30 seconds,My wife and I witnessed around 10 to 13 amber  lights flying in a &#39V&#39 formation at a high rate of speed over Houston.,1/28/1999,29.7630556,-95.3630556
4/29/1997 17:00,fresh pond,ca,us,formation,1500,25 minutes,Large green glowing ball of light over the Sierras,12/14/2004,38.7602778,-120.5288889
4/30/1997 20:00,toronto (canada),on,ca,,180,3 minutes at least,our web camera captured images of a strange craft hovering and moving over toronto,12/2/2000,43.666667,-79.416667
4/30/1997 21:00,twelve mile,in,us,disk,360,3-6 minutes,The kids &amp; I saw several bright white lights in a row  hovering over the tree tops that were along the edge of a field.,2/22/2005,40.8663889,-86.2252778
4/30/1997 23:00,columbia,mo,us,light,20,20 seconds,5 lights in the sky east of columbia dipping rapidly&#44 disappearing then rising again rapidly,9/19/2002,38.9516667,-92.3338889
4/30/1997 23:30,westboro/marlboro,ma,,other,900,15 minutes,Two friends of mine were driving back from a class last Wednesday when they spotted a strange object over a field.  At first they thoug,1/28/1999,42.32695,-71.546154
5/1/1997 14:00,maysville,ky,us,disk,20,20 sec.,Golf tournament. &quot;Scramble&quot; Ball hit off tee. Looked up observed object.Other wittnesses said&#44do you see that.YES&#33Object disapeared.,4/26/1999,38.6411111,-83.7444444
5/1/1997 16:00,torquay (uk/england),,gb,circle,20,20 seconds,UFO in Torquay in the UK.,8/28/2003,50.45,-3.5
5/1/1997 22:00,cedar rapids,ia,us,triangle,900,maybe 15 minutes,Cedar Rapids Iowa   blue lights hovering in the shape of a &quot;V&quot; with no sound and two witnesses,3/4/2008,42.0083333,-91.6438889
5/1/1997 22:00,state college,pa,us,flash,20,20 seconds,Bright flash&#44 long and slow disipation of a thick white trail,6/12/2002,40.7933333,-77.8602778
5/1/1997 22:00,st. petersburg,fl,us,triangle,300,5 min,I was hypnotized upon a star and a triangle shaped craft moved before my eyes about 50 FT away.,10/31/2003,27.7705556,-82.6794444
5/1/1997 23:00,syracuse,ny,us,unknown,7200,2 hrs,lights over central NY,3/11/2006,43.0480556,-76.1477778
5/1/1997 23:00,kitchener (canada),on,ca,triangle,300,1/2 hr,approx 100m long x 30m at back&#44 pointed at front. it was soundless and moving approx 10kph. the only way that i can explain it is to sa,7/26/2002,43.45,-80.5
5/2/1997 22:00,oceanside,ca,us,other,600,10 minutes,What appeared to be a slow-burning&#44 orange-colored object was slowly &quot;floating&quot; in a northernly direction directly over the beach just,1/28/1999,33.1958333,-117.3786111
5/2/1997 22:05,oceanside,ca,us,other,600,10 minutes,AN ILLUMINATED OBJECT WAS FIRST SIGHTED IN THE SOUTHEAST&#44ILUMINATED WITH AN ORANGE LIGHT OF MEDIUM INTENCITY.THE OBJECT WAS FLYING AT A,1/28/1999,33.1958333,-117.3786111
5/2/1997 22:45,lincoln city (north of),or,us,light,480,6-8 minutes,Obj. travelling n/nw at satelite altitude. intermittent (irregular) brilliant white bursts&#44 faded to pale yellow.  2nd obj  w/same m/o,1/28/1999,44.9583333,-124.0166667
5/3/1997 02:45,montreal (canada),pq,ca,,900,15 min.,I was in my bed smoking a cigarette&#44 and just when I finished it&#44I close my light.15 second after&#44 I hurd a voice saing &quot; come with me,12/2/2000,45.5,-73.583333
5/3/1997 21:00,freeport,il,us,triangle,600,10 minutes,Bright triangular object&#44 slow speed and low sound&#44 spotlight appeared on our group&#44 4 other objects seen on horizon.,12/20/2012,42.2966667,-89.6211111
5/3/1997 21:03,stafford,tx,us,other,10,10 seconds,Through telescope&#44observed amoeba or translucent object containing lights of blue red and white.Seemed distorted though could not see t,1/28/1999,29.6158333,-95.5575
5/3/1997 23:30,freeport,il,us,triangle,300,3-5 min,Huge&#44 black&#44silent&#44 triangular craft seen moving low over house with 2 witnesses present.  What was this thing?,5/24/2005,42.2966667,-89.6211111
5/4/1997 22:20,newport beach,ca,us,triangle,2,2 seconds,It was a clear night on Sunday&#44May 4 &#3997 at 10.20pm. The craft approached from the sea&#44 the west&#44 and made a slight change on course to,4/2/1999,33.6188889,-117.9280556
5/5/1997 01:00,norton,ks,us,triangle,3,more than four hours,Triangular craft and other strange sightings,8/5/2001,39.8338889,-99.8911111
5/5/1997 12:15,west chester (outside&#44 on rte. 202),pa,us,egg,10,10sec,Driving north alogn Rt 202 I noticed egg shaped metallic objectmoving through the sky.  It was highly reflective and shone brightly.It,1/28/1999,39.8494444,-75.3561111
5/5/1997 19:00,austin,tx,us,light,15,15sec,Several lights appeared in the Northwestern sky.,1/28/1999,30.2669444,-97.7427778
5/5/1997 19:00,bee caves,tx,,other,45,45 seconds,bright lights in formation in sky near Austin&#44 TX,4/27/2007,30.306098,-97.952377
5/5/1997 19:45,turlock,ca,us,light,3,3 seconds,I saw a line of bright lights like star&#44 it lasted about 3 seconds and disappeared.,1/28/1999,37.4947222,-120.8455556
5/5/1997 20:00,kiriat-yam (israel),,,disk,120,2 minuts,spind around the house about 10 feet above it. went up and disappired.,4/27/2004,32.849276,35.068929
5/5/1997 20:30,round rock/georgetown,tx,,rectangle,180,about 3 minutes,Large black Rectangle hovering over radio towers just south of Georgetown and north of Round Rock,8/20/2001,30.52082,-97.671427
5/6/1997 17:25,seattle,wa,us,disk,420,7 minutes,Disc shaped object 8000&#39 in SW Quadranttravelling N-S observed in Seattle from cornerof Aurora and Thomas.Object shimmered insunlight a,1/28/1999,47.6063889,-122.3308333
5/7/1997 01:00,santa monica,ca,us,disk,120,2 minutes,On May 7&#44 1997 I was looking north to the Santa Monica mountains and saw what I believed to be a helicopter shining its lights down on,1/28/1999,34.0194444,-118.4902778
5/7/1997 19:30,adelaide (south australia),,au,triangle,5,5 seconds,first a dimond shape full of lights then travel right a v type object,4/2/1999,-34.928661,138.598633
5/7/1997 20:00,corapeake,nc,us,flash,300,5 minutes,There were three fire balls&#44 one over top of each other&#44 which had three smaller dots around each in a triangular shape.,7/11/2000,36.5341667,-76.5766667
5/8/1997 01:30,sylmar,ca,us,other,600,10 minutes,Object looking like a shooting star but going upward.  Going higher&#44 a beam of light shone from the object until it disappeared.,1/28/1999,34.3077778,-118.4483333
5/8/1997 05:15,citrus heights (a suburb of sacramento),ca,us,other,120,2 min (approx),Object of an unknown type cruising at a low rate of speed over the area of Citrus Heights,1/28/1999,38.7072222,-121.28
5/8/1997 22:00,auburn,wa,us,triangle,60,1 minute,we saw a &quot;V&quot; shaped object from beneath.  It had at least 15 lights .  no sound&#44 it was traveling north bound right in the air traffic,10/12/2001,47.3075000,-122.2272222
5/9/1997 21:00,las vegas,nv,us,light,300,5 minutes,Set of 7 or 8 orange lights moving silently at airliner velocity&#44 size and altitude over Las Vegas Nevada,8/24/2010,36.1750000,-115.1363889
5/9/1997 21:50,phoenix,az,us,light,180,3 minutes,6-8 lights were seen flying in formation s.of phoenix. They would cluster&#44 form V shapes&#44 inverted Vs&#44 cluster in a stationary loation.,1/28/1999,33.4483333,-112.0733333
5/10/1997 00:00,austin,tx,us,flash,3,3 seconds,it flashed very bright and then took off at the speed of light with a blue trail following it.,12/3/2004,30.2669444,-97.7427778
5/10/1997 00:25,provo/orem/salt lake city,ut,,light,120,2 mins,Saw a white yellowish light performing vertical and horizontial maneouvers in the northern sky.  At one point it elongated itself and m,1/28/1999,40.760779,-111.891047
5/10/1997 04:10,neoga (6 mi. west),il,us,triangle,300,5 minutes,A 300 TRIANGULAR SHAPED CRAFT&#44 WITH HUNDREDSOF RED DOT LIGHTS&#44 FLEW DIRECTLY OVER HEAD&#44MAKING NO NOISE&#44 200 HUNDRED FEET OVER TREE LINE,1/28/1999,39.3194444,-88.4527778
5/10/1997 21:00,southside (gadsden),al,us,other,180,@2-3 minutes,Two bright objects hovering one moment then taking off at high speeds&#44 beyond aircraft speeds.  These two objects seemed to stop and go,1/28/1999,33.9244444,-86.0225
5/10/1997 21:50,sedona,az,us,light,600,5-10 mins,A very bright palsing light with smaller bright object flying around larger object.,1/28/1999,34.8697222,-111.7602778
5/10/1997 22:45,los padres national forest (ventura co.),ca,,other,300,5min.,Observed two objects. One with flashing multi-colored lights&#44 the second&#44 somewhat bell-shaped with two white-yellow lights. They hover,1/28/1999,34.597241,-119.510771
5/10/1997 23:00,azle,tx,us,circle,300,3-5 min.,Saw circle of flames that then reduced size to single light&#44travelled quickly across the sky and was followed by military fighter plane,10/19/1999,32.8950000,-97.5455556
5/10/1997 23:59,winthrop,wa,us,other,7200,2 hours,Objects observed in mountain sky,8/5/2001,48.4780556,-120.185
5/11/1997 04:27,ottawa (canada),on,ca,circle,300,5 minute,Got up to go to washroom at 4:27am looked out my window and saw a shining objet hovering outside for about 2 minutes then speed off.,12/2/2000,45.416667,-75.7
5/11/1997 12:00,porter,tx,us,other,900,15 minutes,We saw &quot;rocks&quot; floating in the air&#44 they drifted over the trees.  They appeared to be floating.  Atleast 10 cars were pulled over on th,1/28/1999,30.1022222,-95.2294444
5/11/1997 23:00,greenwich,ct,us,triangle,120,2 minutes,Slow moving&#44 quiet very large triangular shaped craft just above the tree line.,11/28/2007,41.0263889,-73.6288889
5/13/1997 03:00,edinboro,pa,us,oval,240,3-4:00 min,A friend and I had just dropped off another friend in a suburban neighborhood.  My friend was driving&#44 and I was in the passenger seat.,1/28/1999,41.8741667,-80.1319444
5/13/1997 21:00,petaluma,ca,us,triangle,30,30 sec.,A triangular formation of about 10 glowing&#44reddish lights suddenly appear and fly silently overhead.,10/2/1999,38.2325000,-122.6355556
5/13/1997 22:30,cottonwood,az,us,light,2700,45min,My wife alerted me to a strange light in the sky. &quot;A ufo&quot; I was indoors - I replied &quot; Oh yea...hmm&quot;She insisted I com and take a look.L,1/28/1999,34.7391667,-112.0091667
5/14/1997 11:40,san jose (on the west side),ca,us,circle,180,3 minutes,I saw a round object in the sky slowingmoving to the SE.  It was below the cloudsand left no vapor tail.,1/28/1999,37.3394444,-121.8938889
5/15/1997 00:00,san diego,ca,us,disk,2700,hours,huge disk,5/2/2011,32.7152778,-117.1563889
5/15/1997 02:00,londonderry,nh,us,light,60,less than a minute,Flying neon lights,9/24/2003,42.8650000,-71.3744444
5/15/1997 05:30,thika (kenya),,,teardrop,4,4seconds,I was studying early morning for my private pilots license in my living room with my curtains open.The window faces a valley.It was sti,10/30/2006,-1.038757,37.083375
5/15/1997 08:30,mesquite (near dallas),tx,us,teardrop,25,25 seconds,Small quiet very non dramatic teardrop shaped flying object appeared to be taking off.,2/25/2003,32.7666667,-96.5988889
5/15/1997 10:00,college station,tx,us,light,1200,20 minutes,following light,12/19/2003,30.6277778,-96.3341667
5/15/1997 10:00,mesquite,tx,us,circle,30,30 seconds,hoverd overhead about 30 seconds then took of north at very high speed,1/22/2000,32.7666667,-96.5988889
5/15/1997 13:00,bedford (uk/england),,gb,triangle,300,5 minutes,Triangular object over field in England on sunny day&#44 1997,5/14/2002,52.133333,-0.45
5/15/1997 16:53,palm beach gardens,fl,us,formation,3600,over 1 hour,Red flare like lights in formation. Tv footage was very good. Airline piolt reported alt as 10&#44000 This story did not make it out of Pa,1/28/1999,26.8230556,-80.1388889
5/15/1997 18:30,sorrento,fl,us,cigar,300,3 to 5 mins,A cigar shaped craft with lights floated about 250 yards in front of us and made no sound.,6/12/2007,28.8075000,-81.5638889
5/15/1997 20:00,waco,tx,us,light,60,1 minute,mama ship drops off baby ship,2/14/2006,31.5491667,-97.1463889
5/15/1997 21:00,asheville,nc,us,other,60,both events 1 minuite,an object was sited around the asheville area that was travelling westward. it was brilliantly lit and appeared to be moving very fast.,1/29/2002,35.6008333,-82.5541667
5/15/1997 21:00,great river,ny,us,oval,2700,45 minutes,As I was leaving in my car from a building I happened to look up into the sky and noticed 6 hovering things.  I stopped my car and got,1/28/1999,40.7211111,-73.1580556
5/15/1997 22:00,tehuacan (mexico),,,oval,2,2 seconds,Oval object with half globe on the top and white-shiny haze around it,9/9/2003,18.466667,-97.4
5/15/1997 22:30,south bend,in,us,triangle,120,2 mins,object seen in real life is seen on tv too&#33,7/16/2003,41.6833333,-86.25
5/15/1997 22:45,bouse,az,us,triangle,60,1 minute approx.,5/15/97 at 22:45pm&#44 son and I saw a 150ft pie wedged shaped craft fly down our valley East to West at 30-40mph at 30ft altitude. At eac,7/14/1999,33.9325000,-114.005
5/16/1997 23:00,oklahoma city,ok,us,triangle,300,3 to 5 minutes,3 TRIANULAR OBJECTS HOVERING APPROX. ONE MINUTE&#44 OBJECTS QUICKLY DARTED UP THEN MOVED FROM EAST TO SOUTHWEST&#44 AT MODERATE PACE.,1/28/1999,35.4675000,-97.5161111
5/17/1997 03:30,las vegas (about 60 miles outside of),nv,us,triangle,300,5mins,I seen something at night outside of Las Vegas. In short&#44 this whatever it was&#44 was silent&#44 in what seemed to be in the shape of a tria,11/30/1999,36.1750000,-115.1363889
5/17/1997 14:00,portland,or,us,oval,4,4 seconds,I sighted a rather large silver object&#44Oblong but not rounded it was visible for 5 sec.then gone in a blink.,1/28/1999,45.5236111,-122.675
5/18/1997 19:00,grantville (rte. 443 and appleby road),pa,us,triangle,10,10sec,in church parking lot&#44 my son and aunt&#44 see triangle fly over head.at the intersection of RT 443 AND APPLEBY RD. very fast,1/28/1999,40.3777778,-76.6466667
5/18/1997 21:00,jackson,mi,us,light,300,5 min.,There was a light that was folling us. Then it started flashing differnt colors. It flew away as fast as lighting.,12/23/2002,42.2458333,-84.4013889
5/19/1997 00:20,kalamazoo,mi,us,changing,900,15 + minutes,Bright ball of light&#44 split into two balls of lights&#44 then rejoined itself&#44 changed color and shape repeatedly,1/17/2004,42.2916667,-85.5872222
5/20/1997 01:00,louisville,ky,us,circle,300,5 minutes,glow over louisville kentucky,5/27/2003,38.2541667,-85.7594444
5/20/1997 04:01,jupiter,fl,us,other,1200,20 min,Flame object giving off colored rings in the sky then exploding.  ((NUFORC Note:  Possible missile launch??  PD)),5/24/2005,26.9338889,-80.0944444
5/20/1997 15:00,north pole,ak,us,unknown,10,10 seconds,Strange noisy craft in North Pole,5/24/2005,64.7511111,-147.3494444
5/20/1997 21:15,caldwell (far west of&#44 towards oregon),id,us,other,1200,20mins.,My neigbor viewed  what looked like a verticalcontrail&#44orange&#44 for 10mins. at his work&#44then  drovehome&#44viewed it for 10mins.&#44 I then ca,11/20/2002,43.6630556,-116.6863889
5/20/1997 23:59,los angeles,ca,us,oval,1380,23:00,One of the items was shaped like an eclipse.  I was so impressed that I retained notes of these occurences.  Both occured on the same e,9/9/2004,34.0522222,-118.2427778
5/21/1997 04:00,wolf point,mt,us,fireball,300,5 minutes,Ball of light in Wolf Point Montana May 21&#44 1997,11/28/2007,48.0905556,-105.64
5/21/1997 06:00,phoenix,az,us,other,7200,2 hrs.,Bright object  in SSE over Phoenix&#44 May 21&#44 1997 in the morning sky.,1/28/1999,33.4483333,-112.0733333
5/22/1997 21:25,simi valley,ca,us,formation,240,4 min.,&quot;Delta&quot; shaped group of motionless bright red lights sighted over Simi Valley&#44 Calif.,1/28/1999,34.2694444,-118.7805556
5/22/1997 22:21,chatham,nj,us,disk,600,5-10 min.,5/22/97 22:21 large object over morris/union county new jersey. ten degrees above horizon.,1/11/2002,40.7408333,-74.3841667
5/23/1997 04:00,arcadia (outskirts of),fl,us,light,180,3 minutes,Me and my friend were traveling down I-75 towards Arcadia&#44 Fl. when we saw a very bright pulsating white light hovering in a clearing&#44,9/26/1998,27.2155556,-81.8586111
5/24/1997 20:00,lake tahoe (near),ca,,formation,1800,20-30 min,A &quot;formation&quot; of very bright lights passing very slowly and silently overhead.  Must have been enormous.  Biggest and most unusual thin,1/28/1999,39.096849,-120.032351
5/24/1997 22:15,north tonawanda,ny,us,triangle,90,1.5 minutes,Low slow silent over houses&#44hand glider shaped&#44 1.5 x as big&#44 5&#39 thick&#44 round edges&#44dirty yellow&#44lit from inside like candle thru wax p,11/2/1999,43.0386111,-78.8644444
5/25/1997 01:10,skies over sierra nevada,ca,,light,600,10 minutes,several very fast greenish/blue pulses of light along the Eastern side of California or possibly in Nevada,6/3/2003,39.134667,-121.171039
5/25/1997 19:30,austin,tx,us,disk,90,30 seconds - 1 minute,Saw a fast movin UFO on the way back from getting a pizza.,1/28/1999,30.2669444,-97.7427778
5/25/1997 22:00,saxton,pa,us,formation,360,5-6 mins,we were amazed by all of this,7/11/2000,40.2152778,-78.2447222
5/26/1997 16:50,pompton lakes,nj,us,disk,15,00:15,I was driving in a car. I saw a saucer metal shaped object&#44 a metal I&#39ve never seen before&#44 hovering in the sky&#44 above the falls. It se,1/28/1999,41.0052778,-74.2911111
5/27/1997 00:00,winnsboro,la,us,other,600,10 minutes,well the object sort of came out from the north as i was riding my bike home.,1/28/1999,32.1630556,-91.7205556
5/27/1997 00:35,laguna park,tx,us,cigar,300,5 minutes,At about 24:35 my friends and I were traveling to Laguna Park on Highway 56&#44 when we saw an odd looking aircraft hovering above at abou,1/28/1999,31.8591667,-97.3794444
5/27/1997 15:30,arlington,va,us,disk,2,a few seconds,As I was on my way home&#44 I glanced to the right and saw 2 disk-shaped objects high in the sky. They seemed to be moving VERY fast. Afte,1/28/1999,38.8902778,-77.0844444
5/27/1997 23:00,huntington,ut,us,light,6,about 6sec.,I&#39m 15 years old and this happened about a year ago but I just foundthis place to submit it. Me and my friend were sleeping in my backy,3/7/1998,39.3266667,-110.9638889
5/27/1997 23:05,welland (canada),on,ca,diamond,15,15 seconds,I have had an interest in the skies since childhood.  Over the years I have observed northern lights&#44 meteors&#44 satellites and all kinds,12/2/2000,42.983333,-79.25
5/27/1997 23:30,wichita,ks,us,light,600,10 min,Before you read this you should think. Do you beleive?,3/21/2003,37.6922222,-97.3372222
5/28/1997 22:00,central new york,ny,,light,172800,2 days,Saw 3 to 12 lights appear and then disappear one by one&#44 this went on for about 2 days.,1/28/1999,40.782865,-73.965355
5/28/1997 23:12,canastota,ny,us,light,14400,4 hours,MULTIPLE LIGHTS SIGHTING AND VIDEO MAY 28&#44 19973 to 12 IN DIFFERENT FORMATIONS- 4 HOURS/2 NIGHTS10 WITNESSED- ONEIDA LAKE&#44 NY.- WITH FU,1/28/1999,43.0794444,-75.7511111
5/29/1997 11:59,aston,pa,,oval,900,15 min+,Very large oval UFO video taped for over 15 min in Aston&#44PA Video and stills available&#33,2/1/2007,39.864819,-75.425732
5/29/1997 19:00,hinckley,ny,us,light,300,five minutes,A light of great magnitude was hovering overa barn.It did not make fast moves.IT lastedfor about five or six minutes.The disk wasorange,1/28/1999,43.3122222,-75.1222222
5/30/1997 02:00,manchester,nh,us,,900,15 minutes,They are human in appearence,2/10/2012,42.9955556,-71.4552778
5/30/1997 11:45,dallas,ga,us,sphere,4,4 sec,yellow &#39perfect&#39 sphere crossed entire viewable sky in about 4 sec.&#44 flashing off/on intermittently,10/2/1999,33.9236111,-84.8408333
5/30/1997 20:00,pooler,ga,us,fireball,4,4 seconds,I was in the car at the gas station when a huge green fireball or light fly across the sky. It must have been going VERY fast. It flew,1/28/1999,32.1152778,-81.2472222
5/31/1997 11:28,glendale,az,us,,4,3 - 4 seconds,White&#44 long object travelling east to west&#44 high altitude&#44 extremely fast&#44 no trail&#44 no sound,1/28/1999,33.5386111,-112.1852778
6/1/1997 00:00,houston,tx,us,chevron,300,3-5 mins,1997 Houston&#44 Tx.&#44 midnite - 1a.m.&#44 observed silent&#44 dark&#44 Chevron shaped object&#44 gliding very slowly overhead&#44 tremendous size.,12/12/2009,29.7630556,-95.3630556
6/1/1997 00:00,cardiff (uk/wales),,gb,triangle,240,4 min,large triangular object no sound at all,12/23/2002,51.5,-3.2
6/1/1997 00:01,egg harbor township,nj,,egg,3000,45-50 minutes,Bright Object in the sky,8/12/2008,39.391111,-74.593889
6/1/1997 01:00,north bergen,nj,us,light,120,1-2 mins,I remember seeing lights over North Bergen&#44 NJ,11/28/2007,40.8041667,-74.0125
6/1/1997 01:00,phoenix,az,us,unknown,14400,4 hrs,((NUFORC Note:  We suspect the possibility of twinkling stars.  Just a guess.  PD))  Stationary red-green=white lights.,6/20/2005,33.4483333,-112.0733333
6/1/1997 01:00,cochabamba (bolivia),,,,240,4 minutes,Frozen by fear and a light so bright it enveloped the room yet eerily not blinding,4/27/2007,-17.383333,-66.166667
6/1/1997 02:00,rushcreek,in,,other,1200,15-20 min.,It was a summer night in Indiana when me and my friend Ronnie was going over to a friend&#39s house. We were going through a small&#44 valley,7/1/2002,40.440554,-83.656121
6/1/1997 03:00,eden praire,mn,,triangle,10,10 sec,Driving north on old hwy 169 from little six casino by anderson lake. wife and i spotted 9 triangle white light in the shape of a trian,3/21/2003,44.854686,-93.470786
6/1/1997 03:30,new mexico,nm,,disk,180,3min,on hwy 10east going to elpaso texas.&#44&#44&#44 slow moving object&#44 passed right in front of me no sound&#44 but had a bright light&#44 just flooted,4/26/1999,34.51994,-105.87009
6/1/1997 06:35,crestwood,ky,us,circle,25,25 seconds,i was only 3. the craft was round.a green glowing light on the side. it was close to the ground so i could see the abduction portal on,1/5/2011,38.3241667,-85.4725
6/1/1997 07:00,hamilton,oh,us,circle,600,10 minutes,3 sightings that I&#39ve seen that I want you to know of,9/2/2005,39.3994444,-84.5613889
6/1/1997 08:00,mt. vernon,ny,,light,2400,40 min.,Silent&#44flashing white light making impossible moves in sky over the cities of Mt. Vernon and Yonkers.,4/26/1999,40.912599,-73.837079
6/1/1997 10:00,american canyon,ca,us,triangle,60,1 min,I SAW A TRIANGULAR SHAPED CRAFT AND I SAW INSIDE OF IT.,2/22/2002,38.1750000,-122.2597222
6/1/1997 10:00,waimanalo,hi,us,oval,300,5 minutes,Blurs out of atmosphere&#44 makes speedy angled turns&#44 not slowing down to take em and seems to be spastic at times&#44 and also silent.,1/21/2008,21.3500000,-157.7208333
6/1/1997 12:00,lashmeet,wv,us,triangle,300,5 minutes,I saw a gray hazy metallic triangle shaped object with 3 blue lights and an appearance of being transparent in form.,10/31/2008,37.4208333,-81.1994444
6/1/1997 13:00,glen wilton,va,us,,120,1-2 min.,what I saw was a worm like it remind of a stomach worm&#44 ..it was small a round like that&#44 but it was at not less than 5-6 feet  and abo,8/28/2003,37.7527778,-79.8191667
6/1/1997 13:00,liverpool (uk/england),,gb,oval,360,6 minutes,England: Liverpool. 7.6.1997.  13:00 pm.  Oval shaped black object spotted.  Flipping over on itself.  Absolutely amazed.,7/11/2000,53.416667,-3.0
6/1/1997 13:00,liverpool (uk/england),,gb,disk,600,10minutes,My name is Wayne.  I am 43 years of age.  This event took place in 1997.  It has haunted me ever since.  My son was 9 years of age at t,5/15/2006,53.416667,-3.0
6/1/1997 14:00,fresno (outside of),ca,us,oval,10,10 seconds,round silver floating ball crosses over airport then leaves at high rate of speed with 2 jets attempting to follow,10/12/2001,36.7477778,-119.7713889
6/1/1997 14:00,greenfield (suburb of milwaukee),wi,us,,120,2min,Noticed a very large&#44 slow moving&#44 reddist tinted object in the northern sky. It appeared to have 2 smaller objects flying around it. F,1/28/1999,42.9613889,-88.0125
6/1/1997 15:00,singapore,,,other,7200,around 2 hours,Star-Like Shaped Cruised From South To North,3/4/2003,1.352083,103.819836
6/1/1997 18:00,montebello,ca,us,circle,40,40 seconds,Report of fire ball hovering above a city street.,4/18/2012,34.0094444,-118.1044444
6/1/1997 18:00,hemel hempstead (uk/england),,gb,sphere,120,2 minutes,I was out in my garden looking to see if I could see the comet Hail Bop&#44&#44it was nice and ark&#44&#44I could see aircraft heading in and out o,12/2/2000,51.75,-0.466667
6/1/1997 19:00,el centro,ca,us,chevron,120,minutes,The big v shape UFO was moving in a slow motion towards the super Kmart in El Centro CA. when I saw it outside the store.,1/3/2001,32.7919444,-115.5622222
6/1/1997 19:30,rolphton (canada),on,,flash,1,1 sec,1997 march 17th seen green light.. flash going towards ottawa.. three old ladies seen the same thing.. I went to bed and felt imprinted,1/31/2011,45.98577,-77.507622
6/1/1997 19:45,houston,tx,us,other,780,13 minutes,3 objects at 30&#44000 ft traveling ssw at about600-700 mph,1/28/1999,29.7630556,-95.3630556
6/1/1997 20:00,pelzer,sc,us,triangle,300,5 minutes,I was watching a few inmates who were on a small rec yard and it was dark out but we had a specific time for them to come in off the ya,12/12/2011,34.6422222,-82.4561111
6/1/1997 20:00,meriden,ct,us,sphere,600,10 min,A downing of a UFO?,8/7/2011,41.5380556,-72.8075
6/1/1997 21:00,merritt island,fl,us,light,240,2 or 4 minutes,White yellow light &quot;jumping&quot; around in the sky over Brevard county&#44 FL,11/21/2010,28.5388889,-80.6722222
6/1/1997 21:00,mccomb,oh,us,triangle,30,30 seconds,Triangular object spotted between Gilboa and McComb.  No sound.  Light on each corner.,6/20/2005,41.1075000,-83.7927778
6/1/1997 21:00,southern california operations area,ca,,triangle,1200,20 mins,UFO Sighting on aboard Naval Ship while at sea,6/18/2003,36.778261,-119.417932
6/1/1997 21:00,springfield,ma,us,chevron,240,4 minutes,Very big no sound,8/30/2013,42.1013889,-72.5902778
6/1/1997 21:00,albany (area),ny,us,other,180,3 minutes,IT WAS JUST TURNING DARK=HUDSON RIVERS AT THE END OF MY BACK YARD=IT WAS VERY REAL AND THE ONLY UNUSAL THING I HAVE EVER WITNESSED IN M,11/9/1999,42.6525000,-73.7566667
6/1/1997 21:30,el paso,tx,us,other,20,maybe 20sec.,it was night so i couldnt see all the detail on the gigantic craft.i could tell it was probably black &amp; rectangular mixed w/an oval sha,11/30/1999,31.7586111,-106.4863889
6/1/1997 22:00,park city,ut,us,circle,20,10-20sec,Very low flying&#44 completly silent&#44 lights flashing&#44 in the middle of town and able to hover perfectly in one position.,2/14/2006,40.6461111,-111.4972222
6/1/1997 22:00,richmond,ca,us,other,300,5 minutes,Silent &quot;Airplanes&quot; at Low Altitude,1/17/2004,37.9358333,-122.3466667
6/1/1997 22:30,san fransisco,ca,,formation,60,60 sec,from a roof top one nighit I was lyeing lookin at the sky when i saw two faint lights in the night skyover to my far write. AS I looked,10/12/2001,37.77493,-122.419416
6/1/1997 23:00,shoreline,wa,us,triangle,600,10 min,its been 10 years&#44 did anybody else see what i saw in shoreline washington,4/17/2008,47.7558333,-122.3402778
6/1/1997 23:00,raton (south of; ft. lincoln rest stop),nm,us,unknown,180,3 minutes,Observed unknown high speed&#44 high altitude objects make non-balistic course changes.,1/28/1999,36.9033333,-104.4386111
6/1/1997 23:59,baltimore,md,us,chevron,900,15mins,Object was &quot;V&quot; shaped&#44white  with no rounded edges travelling south east in daylight.with no visible engines or markings.,11/28/2007,39.2902778,-76.6125
6/1/1997 23:59,austin,tx,us,rectangle,2,few seconds,Large rectangular&#44 metallic&#44 no sound&#44 no lights&#44 just above trees&#44 not moving trees&#44 Austin&#44 TX end of 1996 thru 1997,4/3/2011,30.2669444,-97.7427778
6/2/1997 01:30,exeter/kingston,nh,,disk,120,1/2 hour,I have seen ufo&#39s here late at night over a period of like 9 years. Has anyone else seen ufo&#39s in this area? What is going on here? you,1/28/1999,42.981477,-70.947834
6/2/1997 15:32,windsor (canada),on,ca,disk,300,5 mins,i remember it just being there&#44 it hovered and made NO sound and then i was like scared&#44 i didnt know what it was&#44 and My friend was wi,12/23/2002,45.583333,-72.0
6/3/1997 23:00,coushatta,la,us,light,600,10 minutes,two orange lights in the stars,4/27/2004,32.0147222,-93.3419444
6/4/1997 20:30,havelock,nc,us,other,600,10 minutes?,Unusual aircraft or ??,12/2/2000,34.8788889,-76.9016667
6/4/1997 21:20,white plains,ny,us,other,360,6 minutes,Florescent UFO seen by threepassing thru clear area then&#9;thru trees at tree level. UFOwas silent and moved evenly.,1/28/1999,41.0338889,-73.7633333
6/5/1997 16:00,new york city (brooklyn),ny,us,disk,120,2 minutes,Sighting Over Brooklyn New York,5/24/2005,40.7141667,-74.0063889
6/5/1997 21:30,hayward,ca,us,other,60,1 minute,It was hat-shaped and and entirely lighted up and it landed in an in an industrial area,1/28/1999,37.6688889,-122.0797222
6/6/1997 02:00,swansea (uk/wales),,gb,triangle,180,3mins - 5mins,2am saw lights through tent &#44 was very low to us&#44had no sound and was triange and also was very slow passing over us.,4/16/2005,51.633333,-3.966667
6/6/1997 03:00,spain,,,changing,600,10 min.,It hovered near to our car for 10 min.&#44 going from one window to another&#44 changing from a circular shape&#44 to an eliptical&#44 to a square,1/28/1999,40.463667,-3.74922
6/6/1997 18:00,colorado (unspecified),co,,disk,900,15 min,a black shape in the sky while in colorado. was told it was a weather baloon.,9/28/2003,39.550051,-105.782067
6/6/1997 21:45,bothell,wa,us,light,60,about 1 min,At about 9:45 PM&#44 Friday June 6th&#44 I saw a relatively large round orange/yellow fiery light glide straight across the sky from the NE t,1/28/1999,47.7625000,-122.2041667
6/6/1997 23:59,sunderland (uk/england),,gb,circle,1200,20 minutes,A silent orange ball (not the sun&#33) hovering&#44 then rising in the air repeatedly&#44 then changing colour to silver and shooting of through,1/22/2000,54.911944,-1.383333
6/7/1997 03:00,jeffersonville,in,us,light,300,5 minutes,Deep red colored bright light&#44 same intensity as white aircraft landing lights.  Exhibited non-ballistic motion.,2/14/2008,38.2775000,-85.7372222
6/7/1997 19:30,weatherford (2 &amp; a half miles south of),ok,us,fireball,120,a couple of minutes,It was a huge ball of fire falling one moment then accelerating upwards the next.,8/5/2001,35.5261111,-98.7072222
6/7/1997 22:00,quincy,ma,us,cylinder,5,5 sec.,I WAS RIDING IN THE CAR WITH MY MOM WHEN A STRANGE MISSILE SHAPED OBJECT FLY OVER THE ROAD AT LOW ALTITUDE,1/28/1999,42.2527778,-71.0027778
6/7/1997 22:30,st. louis,mo,us,cylinder,180,about 3 minutes,A long&#44 finger-shaped&#44 metal object hovered over the creek behind my house for several minutes.,1/28/1999,38.6272222,-90.1977778
6/8/1997 15:00,santa clara,ca,us,changing,120,appx  2 min,It sped off at a teriffic speed&#44 changing size and color.,8/19/2000,37.3541667,-121.9541667
6/8/1997 19:16,renton,wa,us,disk,360,5-6 minutes,Disc Shape. 3 witnesses. Flight was a little wobbly.,1/28/1999,47.4830556,-122.2158333
6/9/1997 01:15,monterey (north of),ca,us,other,900,15 minutes,saw blue green bright flash covering entire horizen&#44 then few miles down the road off of highway 1&#44 saw two perfect circles of fire in,1/28/1999,36.6002778,-121.8936111
6/9/1997 01:30,doylestown,pa,us,triangle,15,15 seconds,V-shaped object / glowed with dim light,1/28/1999,40.3100000,-75.1302778
6/9/1997 12:00,kalamazoo,mi,us,formation,1800,30 minutes,Collection of white objects at extreme height in broad daylight that looked like living things&#44 but were not.,2/14/2008,42.2916667,-85.5872222
6/9/1997 22:30,holly,mi,us,triangle,180,3 min,Triangle craft crosses over US 23 North of Holly&#44 MI on 06/09/1997  @ 22:30,2/18/2011,42.7919444,-83.6277778
6/10/1997 00:30,toronto (canada),on,ca,diamond,300,5 min,Two objects Dwtn Toronto&#44 Diamond changing shaes and colour and a kidney shaped object seen.,10/11/2005,43.666667,-79.416667
6/10/1997 12:00,newport,me,us,disk,300,5 mins.,Silver saucer with white flashing lights flew overhead,10/8/2007,44.8352778,-69.2744444
6/10/1997 12:00,new york,ny,us,other,0.5,half a second,Extremely Fast and Small Flying Straw,2/22/2005,40.7141667,-74.0063889
6/10/1997 16:00,knoxville,tn,us,triangle,60,1 minutes,Myself and a friend was traveling north on whittle springs roads. As we approach the stop at the corner of edgewood. We both notice thi,2/21/2014,35.9605556,-83.9208333
6/10/1997 21:00,rochester,ny,us,triangle,900,15 min.,another person and i were driving home on a semi - unoccupied road. i noticed a strange glow&#44 an almost greenish light in the sky&#44 in a,11/23/1999,43.1547222,-77.6158333
6/10/1997 22:00,louisville (directly over metropolitan area),ky,us,other,40,40 seconds,I was riding parallel to downtown Louisville on the Indiana side of the Ohio river. Was In &quot;Floyds knobs&quot; in New Albany&#44 Ind....looking,1/28/1999,38.2541667,-85.7594444
6/10/1997 22:30,golden (i-70 e&#44 by exit for),co,us,light,120,2 minutes,I70E Golden&#44 CO exit. Lg bright object sped to ground. Maybe a minute later I saw a bright flash of light(it crashed?),6/23/1999,39.7555556,-105.2205556
6/10/1997 23:00,zion grove,pa,us,light,10,10 seconds,I saw a bright light in the sky which moved faster than anything I have ever seen.,4/1/2001,40.9025000,-76.2088889
6/11/1997 11:00,reno,nv,us,cylinder,180,3 mins.,U.F.O.s sighted from commercial airplane.,7/30/2002,39.5297222,-119.8127778
6/11/1997 21:20,san angelo,tx,us,other,30,00:00:30,These objects were very close&#44 noiseless&#44 seamless in design&#44 uniform in color&#44 and unwavering in direction and motion.,11/20/2001,31.4636111,-100.4366667
6/12/1997 13:00,hieleah,fl,,disk,1500,20 to25 min,ufo seen over back yard 30 feet from the ground.,2/14/2008,25.857596,-80.278106
6/12/1997 21:45,newark (south of&#44 garden state pkwy.),nj,us,light,5,5 seconds,A bright light with a tail&#44 like a fireworks&#44 flew east to west across the highway&#44 between 100 and 500 feet elevation??&#44 distance ??,1/28/1999,40.7355556,-74.1727778
6/12/1997 23:00,frodsham/northwich (uk/england),,,light,300,5 mins,Saw light in night sky&#44 quite close 150m&#44 no sound&#44 no movement&#44 5 mins plus&#44 unpopulated area&#44 white light&#44 uk.,7/16/2006,53.27774,-2.664218
6/13/1997 16:00,beverly hills (adjacent),ca,us,triangle,2400,40 min.,I tried to get on to Art Bell on 1/17/04&#44 but could not. What compelled me to write was that a) I am a journalist&#44 and you talked about,1/22/2004,34.0736111,-118.3994444
