Date,city,state,country,shape,duration (seconds),duration (hours/min),comments,date posted,latitude,longitude 
1/1/1980 01:00,indianapolis,in,us,light,420,7 minutes,Very bright green light without sound moved over me and my car from a wooded area about a 1000 ft. up.,6/12/2007,39.7683333,-86.1580556
1/1/1980 19:00,yorkeys knob (north of cairns) (qld&#44 australia)),,au,other,600,2 - 10 minutes,1 slow moving UFO rising from East (ocean) to West&#44 on straight path&#44 rectangular/cylindrical shape.,6/20/2005,-16.816667,145.716667
1/1/1980 23:30,chicopee,ma,us,diamond,300,5 minutes,I heard a noise like thunder&#44 went to the kitchen window and saw a black diamond-shaped craft hovering over the porch.,2/16/2000,42.1486111,-72.6083333
1/7/1980 13:00,oklahoma city,ok,us,other,600,10 min.,Man repts. football-shaped obj.&#44 30-40&#39 long on N side of I-240.  &quot;Skin&quot; appeared to &quot; rotate&quot; around 2 axes (&#33).,11/2/1999,35.4675000,-97.5161111
1/10/1980 00:00,exeter,nh,us,disk,7800,10min to 2hrs,saw what appeared as very bright star&#44 somewhat orange&#44 yellow which changed in intensity to very bright&#44 from bright. was standing on,2/18/2001,42.9813889,-70.9483333
1/11/1980 23:00,wichita,ks,us,cigar,360,3 to 6 minutes,Cigar-shaped&#44 city-block long&#44 silent&#44 super-slow forward moving and descending&#44 three red lights&#44 blotted out the stars w/black.,5/11/2005,37.6922222,-97.3372222
1/12/1980 23:00,orinda,ca,us,sphere,2400,40 minutes,My house was on the golf course  i became very uneasy and had butterflys in my stomache  I picked up a firearm  before the sighting a s,2/8/2005,37.8772222,-122.1786111
1/15/1980 21:45,toronto (canada),on,ca,disk,480,8 minutes,Super-colossal circle of rotating lights perpendicular to the ground &quot;sailing&quot; over major city.,10/8/2007,43.666667,-79.416667
1/15/1980 22:00,albany,il,us,disk,300,5 min,saucer over corn field on a cold winter night.,1/17/2004,41.7894444,-90.2191667
1/15/1980 22:00,pittsburgh (north of),pa,us,oval,900,15 min.,Two glowing disks seen over an Interstate highway in Western Pennsylvania.,11/21/2010,40.4405556,-79.9961111
1/21/1980 14:30,los angeles,ca,us,diamond,120,2 minutes,Spinning metallic diamonds over Super Bowl,10/12/2001,34.0522222,-118.2427778
1/22/1980 02:00,murphy/arnold,ca,,sphere,2700,45 minutes,Tracked by a UFO,12/12/2011,38.226057,-120.369519
1/23/1980 22:30,virginia beach,va,us,cylinder,1200,20 minutes,A &quot;cylinder [shaped] object&#8221; that had a &#8220;white light with a red dot&#8221;  and was &#8220;over roof top&#8221; and then &#8220;went behind the houses.&quot;,3/19/2009,36.8527778,-75.9783333
2/2/1980 20:30,georgetown,de,us,triangle,1200,20 minutes,UFO at Vo-Tech Center comes calling again,9/2/2005,38.6900000,-75.3858333
2/6/1980 20:22,derby (uk/england),,gb,egg,3.5,3.5 seconds,Walking North in a quiet town street&#44with my wife&#44 I glanced over my right shoulder and saw an object flying across the dark sky. I cri,3/11/2006,53.166667,-1.583333
2/7/1980 00:00,mexico city (mexico),,,circle,60,one minute,MY FAMILY AND I LIVE IN A TWO STORY HOUSE AT THAT TIME&#44 I WAS LOOKING AT THE WINDOW WHEN I SAW A FLYING SOUCER COMING TOUR ON TOP OF TH,2/14/2008,19.432608,-99.133208
2/15/1980 13:00,gisborne (new zealand),,,cylinder,120,2mins,I was in New Zealand for a working holiday&#44 and a group of us went north of Gisbourn to a cool pub on the beach&#44  it was about 1:00 pm,4/12/2013,-38.662334,178.017649
2/15/1980 22:00,hollister,ca,us,egg,600,10 minutes more or less,I was in High School just got out of late Basketball Practice.  My older brother came to pick me up and take me home.  It was late even,10/30/2006,36.8525000,-121.4005556
2/17/1980 19:10,canton,ny,us,light,20,20 seconds,Two unblinking lights travel in line across the sky in Canton&#44 NY,2/18/2013,44.5955556,-75.1694444
3/1/1980 00:30,oxford,ct,us,cigar,120,2 minutes,Large Cigar shaped object very close.,7/25/2004,41.4338889,-73.1172222
3/1/1980 18:00,bisbee,az,us,other,1800,30 minutes,Large&#44 nearby&#44 stationary&#44 metallic&#44 featureless oblate  spheroid in full daylight&#44 chased by jet fighter in Az in 1980,10/7/2003,31.4480556,-109.9277778
3/1/1980 18:30,san francisco,ca,us,light,60,1 minute,Bright blue circular light travelled east to west across the S.F. Bay at a high rate of speed.,2/22/2002,37.7750000,-122.4183333
3/14/1980 20:00,homestead,fl,us,circle,60,1 min + or -,Glowing white circular object seen in the Florida Everglades around 1980.,11/2/2004,25.4683333,-80.4777778
3/15/1980 01:00,wayland,ma,us,light,30,approx 30 seconds,Bright yellow light  accelerates above road in Wayland&#44 MA to a high speed noiselessly.,3/11/2006,42.3625000,-71.3619444
3/15/1980 02:00,concord (north of),nh,us,other,10,10 seconds,Multiple Neon Green Objects Flying In Formation,8/5/2009,43.2080556,-71.5380556
3/15/1980 16:30,manassas,va,us,disk,10,10 seconds,Witnessed 15 disks flying directly west into the setting sunlight,2/23/2000,38.7508333,-77.4755556
3/20/1980 00:00,morning sun,ia,us,disk,120,2 minutes,A 12&#39 circular light was on the bottom of the craft. It was hovering silently over my farm pond. I was 20&#39 from craft&#44 the engines star,8/30/1999,41.0961111,-91.2575
3/20/1980 02:00,not sure,nh,,other,15,15 seconds,Multiple Object Sighting.,9/2/2005,43.193852,-71.572395
3/20/1980 20:00,paterson,nj,us,disk,60,one minute,HUGE disk hovering over the city of Paterson in the very early 1980&#39s.,10/17/2003,40.9166667,-74.1722222
3/24/1980 14:00,westminster,co,us,disk,5,5 seconds,A disc shaped object was floating above&#44 the color was a orangish red and glowing&#44 took off at a blink of an eye.My name is Dave an,3/7/1998,39.8366667,-105.0366667
3/31/1980 19:15,canoga park,ca,us,disk,60,1 minute,Saucer shaped craft hovering near Zody&#39s dept store in Canoga Park,3/4/2008,34.2011111,-118.5972222
4/1/1980 16:00,costa mesa,ca,us,changing,900,15 minutes,Pulsing&#44 mercury in appearance&#44 spinning on an axis.  Looked as if maybe living or organic in nature.,8/5/2012,33.6411111,-117.9177778
4/4/1980 22:00,leamington spa (uk/england),,gb,other,300,5 mins,FOR STEELING&#44 IT WAS APPROX 12 TO 15 FEET HIGH AND WAS PURE LIGHT SHAPED LIKE A SQUARE ARMED AND LEGGED ROBOT&#44,8/5/2001,52.3,-1.533333
4/5/1980 23:59,seattle,wa,us,triangle,180,3 minutes,Metal triangle seen over Boeing field in 1980.,4/27/2004,47.6063889,-122.3308333
4/10/1980 19:50,alameda,ca,us,fireball,300,5 min,I had been moving in to our new apartment in Alameda&#44 California. I was relaxing on the beach overlooking the San Francisco Bay south o,8/16/2002,37.7652778,-122.2405556
4/18/1980 23:59,middletown,oh,us,sphere,240,3-4 min.,Red ball of light turns white then red and floats away into the sky&#44very close to it&#44only about 25 &#39 up,6/18/2003,39.5150000,-84.3983333
4/20/1980 00:00,hyderabad (india),,,other,1200,15 mts.,Bell shaped Cloud appears over Indian city&#44 three smaller ones appear below it&#44 they all merge together forming a bright orange ball,3/2/2004,17.385044,78.486671
4/20/1980 14:00,dayton,oh,us,cigar,300,5 mins,Cigar shaped craft outruns fighter jets,10/31/2003,39.7588889,-84.1916667
5/1/1980 00:00,pittsburg,ca,us,oval,120,2 minutes,Saw bright white light coming from UFO&#44 that left our atmosphere possibly&#44 in Pittsburg&#44 CA.,4/16/2005,38.0280556,-121.8836111
5/1/1980 07:00,seattle,wa,us,disk,300,5 minutes,It was very shiny silver and 2 Army helicopters followed it.,7/8/2004,47.6063889,-122.3308333
5/1/1980 12:00,salt lake city,ut,us,cylinder,3600,about an hour,Something in the Sky over Sugarhouse Park&#44 Salt Lake City - Utah,4/27/2007,40.7608333,-111.8902778
5/5/1980 04:00,los angeles,ca,us,light,5,5 seconds,Los Angeles CA.  28 years ago. Spheric light travelling at a steady speed.  I knew of nobody to report it to. But now I can&#33,7/5/2008,34.0522222,-118.2427778
5/5/1980 18:00,livermore,ca,us,disk,300,5 minutes,3 people clearly see large saucer shaped object 1/2 mile away,5/29/2011,37.6819444,-121.7669444
5/10/1980 10:30,gladstone,mi,us,light,180,3 minutes,UFO with Lights in Bay View Location on Little Bay de Noc Shore line.,3/18/2014,45.8527778,-87.0216667
5/10/1980 10:30,gladstone,mi,us,light,180,3 mins,UFO with Lights in Bay View Location on Little Bay de Noc Shore line,3/18/2014,45.8527778,-87.0216667
5/10/1980 13:00,milford,ct,us,other,10800,3 hours,Strange craft over house&#44 possible abduction,7/4/2012,41.2222222,-73.0569444
5/10/1980 20:00,wilton,ca,us,light,4,3-4 seconds,Two lights&#44 one amber&#44 one green&#44 taking turns passing each other&#44 very fast&#44 high up,3/19/2002,38.4119444,-121.2711111
5/12/1980 20:30,raytown,mo,us,disk,900,15minutes,shiny disk shaped with a raised dome on top in the middle&#44rotateing light[white] moved around bottom.,12/23/2002,39.0086111,-94.4633333
5/12/1980 21:00,greenfield,in,us,light,60,60 seconds,Bright Spherical light seen over Hancock County field&#44 disappears,5/11/2005,39.7850000,-85.7694444
5/15/1980 01:00,hat creek,ca,us,rectangle,7200,2hr,Do not have a clue what took place with my friend and I,3/11/2003,40.8305556,-121.5125
5/15/1980 16:00,eureka,ca,us,cigar,120,2 minutes?,Rode the schoolbus with friend Joel to his house after school. When we stepped off the bus&#44 we saw a shining craft in the sky&#44 an elong,3/2/2004,40.8022222,-124.1625
5/15/1980 17:40,yonkers,ny,us,triangle,180,3min,Moved slowly over rooftops in early evening&#44,10/20/2005,40.9311111,-73.8991667
5/15/1980 20:00,oklahoma city,ok,us,changing,300,5 minutes,Unusual spacecraft 15 feet above me.  Did not hover&#44 it was stationary&#44 solid matter&#44 as though it were a solid fixture.,8/24/2010,35.4675000,-97.5161111
5/15/1980 20:00,oklahoma city,ok,us,changing,300,5 minutes,Unusual spacecraft 15 ft obove me.  Stationary&#44 solid matter.  Did not hover.,4/16/2005,35.4675000,-97.5161111
5/15/1980 22:00,st. cloud,mn,us,other,180,3 minutes,Saturn shaped U.F.O.,12/20/2012,45.5608333,-94.1622222
5/20/1980 12:30,salt lake city,ut,us,sphere,2700,45 min,Stationary silver ball very high in daytime May 1980 observed approximately 45 minutes.,10/12/2001,40.7608333,-111.8902778
5/22/1980 02:00,little rock,ar,us,unknown,15,15 seconds,Bright intense light awoke us at 2:00 am in Little Rock; 1980,4/16/2005,34.7463889,-92.2894444
5/25/1980 23:00,dekalb,il,us,circle,1200,20 minutes,Circular object with alternating flashing lights with a bright beam of light focused on a tower.,9/29/2004,41.9294444,-88.7502778
6/1/1980 00:00,overton,tx,us,other,600,10 min,I was in house&#44 heard noise like far away train&#44as sound got louder&#44 could fell vibration in air. Went outside looked up and a low flyi,1/22/2000,32.2744444,-94.9783333
6/1/1980 00:30,portugal,,,cigar,10,10 sec,from portugal.....red cigar upon douro river,7/16/2003,39.399835,-8.22491
6/1/1980 01:00,calgary (canada),ab,ca,circle,900,15 min,sitting in my car 20 miles outside calgary waiting for collen to change his tire on his van as i was waiting looked up in the sky at th,1/11/2002,51.083333,-114.083333
6/1/1980 05:00,parkersburg,wv,us,circle,180,3 minutes,Multi-colored craft hovering above me.,10/30/2012,39.2666667,-81.5616667
6/1/1980 09:00,plymouth (uk/england),,gb,oval,120,2minutes,HELLO THERE.I LIVE IN PLYMOUTH&#44DEVON IN THE SOUTH WEST OF ENGLAND&#44WHERE THIS SIGHTING OCCURED.IT WAS A LONG TIME AGO&#44AROUND 1980&#44 THAT,8/5/2001,50.396389,-4.138611
6/1/1980 11:00,victorville,ca,us,light,180,3minutes,I was riding my motor cycle east bound on highway 66&#44as I looked left in broad daylight I saw three bright lights traveling east bound,4/28/2001,34.5361111,-117.2902778
6/1/1980 12:00,baadon,mi,,changing,2400,40:min.,shape was round pail white like a ring had aball of britter light following the dia. of the ring thate split in half it was somthing th,3/19/2009,44.314844,-85.602364
6/1/1980 13:00,temple terrace,fl,us,disk,180,3 minutes,disc shaped object spinning w/lights&#44 no sound&#44 hovering over me and husband in our pool in daylight.,3/23/2011,28.0350000,-82.3894444
6/1/1980 14:00,evansville,in,us,circle,300,5 minutes,I was laying on my dad car looking up I saw a silver craft in the sky as clear as day on sycamore street in Evansville&#44 Indana.,4/11/2014,37.9747222,-87.5558333
6/1/1980 16:00,montgomery,al,us,disk,30,30 seconds,It looked like the comic book flying sausers when i was young._ silver &#44 had lights &#44 i was 100 ft away daylight.,1/16/2014,32.3666667,-86.3
6/1/1980 17:00,ethell,wa,,other,300,3 to five minutes,Huge Silver Upside down V shaped craft hovering over field in broad daylight,8/28/2002,46.532228,-122.740492
6/1/1980 18:00,london (uk/england),,gb,circle,420,7 mins,SAW A FLYING SAUCER CLOSE UP&#44  IN THE MIDDLE OF LONDON JUST BEFORE MORNING RUSH OUR ?,7/16/2006,51.514125,-0.093689
6/1/1980 18:00,andover,mn,us,disk,1200,20 minutes,I heard a  humming noise&#44 craft hovered for 20 minutes then zipped away about 1/4 mile hovered again then dissappeared.,4/27/2004,45.2333333,-93.2911111
6/1/1980 18:30,cali-buga (colombia),,,disk,180,3 minutes,ufo with a lighting rod.  ((NUFORC Note:  One of several reports from same source.  PD)),5/27/2003,35.864734,14.519128
6/1/1980 18:30,birmingham (uk/england),,gb,unknown,300,5-min,what&#39s that a moveing star?,2/18/2001,52.466667,-1.916667
6/1/1980 19:00,auxvasse,mo,us,disk,600,10 mins,Auxvasse MO. silver disk shaped object arox. 300 ft in diameter aprox 100 ft off the ground rotating&#44 no sound.,7/1/2002,39.0180556,-91.8969444
6/1/1980 19:00,hamburg,ny,us,sphere,10,:10,Observed bright white sphere hovering over vehicle,4/16/2005,42.7158333,-78.8297222
6/1/1980 20:00,oroville,ca,us,sphere,120,1-2 minutes,Saw 2 glowing spheres going from West to East for about two minutes.,2/14/2008,39.5138889,-121.5552778
6/1/1980 20:00,bethel,ct,us,other,10,10 seconds,light seperated into four parts and flew away at right angles,8/7/2007,41.3711111,-73.4144444
6/1/1980 20:00,greeneville,tn,us,triangle,30,30 seconds,3 witnesses see 2 large triangularobjects hovering about 100 feet inair. No sound. Objects shoot laserbeam toward one another-disappear,3/7/1998,36.1630556,-82.8311111
6/1/1980 20:00,ladue,mo,us,triangle,120,2 minutes,black triangle  with rounded corners 1980 St.Louis,12/23/2002,38.6497222,-90.3805556
6/1/1980 20:30,port wentworth,ga,us,cigar,1200,20 mimutes,Object above tree in Port Wentworth &#44 Ga,2/14/2008,32.1488889,-81.1633333
6/1/1980 21:00,buenos aires (argentina),,,,300,5 minutes,Buenos Aires triangle,10/23/2013,-34.603723,-58.381593
6/1/1980 21:00,gray,ga,us,other,10,10 seconds,low hovering large flat object with very loud roaring sound.,6/18/2003,33.0094444,-83.5338889
6/1/1980 21:00,newport,ar,us,unknown,2,seconds,A Flash of light from inside the cab of the truck.,5/14/2002,35.6047222,-91.2816667
6/1/1980 21:00,birmingham,al,us,triangle,180,3 minutes,three lights that formed a triangle in the night sky,10/27/2004,33.5205556,-86.8025
6/1/1980 21:30,houston/san antonia (between),tx,,other,120,2 minutes,This is something that has stayed on my mind for 30 years. I was traveling on a Sun night from Houston&#44 TX on my way back to Fort Sam H,2/8/2011,29.424757,-98.427504
6/1/1980 22:00,marlow heights,md,us,light,3600,1 hour,Appeared to be a star moving at great speed&#44 breaking up&#44 disappearing then reappearing in another location.  Very erratic behavior.,12/16/1999,38.8333333,-76.9519444
6/1/1980 22:00,morganton,nc,us,light,1200,20 minutes,Orange light splits into three pieces,4/16/2005,35.7452778,-81.685
6/1/1980 22:00,willard,oh,us,unknown,600,10 minutes,The vertical lights that were not like any machinery made it questionable.,1/30/2014,41.0530556,-82.7263889
6/1/1980 23:00,southmountain (canada),on,,circle,300,5 min,A round Ball OF Light 20 feet above ground 2 field lenghts away from my car,8/28/2003,44.986308,-75.448092
6/1/1980 23:00,warminster,pa,us,disk,2700,45 mins,Saw disk object wiht pulsing lights  move at supersonic  speed with no sound.,12/16/2005,40.2066667,-75.1
6/1/1980 23:00,algonquin,il,us,disk,900,15 minutes,As a teenager I saw a flying saucer do triangular patterns then disappear. It had lights and was spinning,7/3/2013,42.1655556,-88.2941667
6/1/1980 23:30,france (massif maures southern),,,light,300,5mins,vertically ascending bright light going on and off&#44that at 2 miles high remains on and shoots up int the stars very very very fast,1/3/2001,46.227638,2.213749
6/3/1980 15:00,lake forest,il,us,triangle,900,15 min approx,June 1980,8/12/2008,42.2586111,-87.8405556
6/5/1980 01:00,darien,il,us,unknown,120,less the 2mins,I thought at first it might be a helecoper&#44 but there was no sound coming from it&#44 nothing,4/16/2005,41.7519444,-87.9738889
6/8/1980 16:00,tucson,az,us,diamond,600,10 minutes&#33,a bunch of us were outside building a gazebo &amp; working on the garden when i was on the roof of the gazebo taking a break... looking alm,4/1/2000,32.2216667,-110.9258333
6/10/1980 21:00,seiling,ok,us,circle,15,15 seconds,930pm looked into night sky and saw 4 circular objects flying through the sky&#44 stop&#44 circle around&#44 and speed off ...disappearing.,4/27/2007,36.1480556,-98.9238889
6/12/1980 01:00,middle valley,tn,us,triangle,240,4 min.,approx. 150&#39 for all three sides&#44 no apparent front or back. yellow to white glow at the three corners. magenta in center&#44 no apparent,5/24/1999,35.1958333,-85.1847222
6/12/1980 17:30,caquas (puerto rico),pr,,egg,600,10 min,Traveling through air Pockets time travelers ?,12/23/2002,18.234122,-66.048499
6/15/1980 10:00,yacolt,wa,us,disk,120,2 minutes,Small disc shaped object dropped into view less than 40 feet away from observers.,9/24/2003,45.8661111,-122.405
6/15/1980 10:30,southampton (uk/england),,gb,disk,60,1 minute,silver domed saucer spotted in southampton england 1980,3/4/2003,50.9,-1.4
6/15/1980 10:30,wapello,ia,us,circle,600,10min.,Craft sucking water from pond.,4/16/2005,41.1813889,-91.1852778
6/15/1980 18:00,mentor,oh,us,disk,300,5 minutes,ufo in the summer of 1980 in mentor &#44ohio no sound &#44about the size of a football feild then left fast on a angle up then gone,6/4/2004,41.6661111,-81.3397222
6/15/1980 20:00,columbia (central--over center of campus),mo,us,light,300,5 min.,Summer of 80 or 81--just pre-dusk.  Dark amber light with indistinct edges cruises due east over center of U campus.  &quot;Closes in on sel,1/11/2002,38.9516667,-92.3338889
6/15/1980 21:00,sterling,va,us,disk,8,8 secs,Glowing UFO over Sterling&#44 VA,10/31/2008,39.0061111,-77.4288889
6/15/1980 21:00,point mugu,ca,,light,120,about 2 min.,The craft were brightly lit&#44 had hovering ability&#44 and were lightning fast.,7/16/2003,34.085562,-119.060935
6/15/1980 21:42,nashville,tn,us,triangle,2400,40 minutes,A large dumbbell shaped ufo appeared&#44 and then it seemed to be engaged (as if in violation of something) by three smaller triangle ufos,6/6/2000,36.1658333,-86.7844444
6/15/1980 21:45,san francisco,ca,us,disk,120,2 minutes,Two Unidentified Flying Objects.,12/20/2012,37.7750000,-122.4183333
6/15/1980 22:00,el paso,tx,us,light,300,5 min,Saw light travelling across skyI saw a white light at very high altitude travelling across the sky.I thought it was a satellite unt,3/7/1998,31.7586111,-106.4863889
6/15/1980 23:59,edmonton (canada),ab,ca,formation,300,5 min,Objects &amp; Beams of Light in Symetrical Pattern Fly across the sky.,3/2/2004,53.55,-113.5
6/15/1980 23:59,barnsdall,ok,us,other,3,2-3 sec,football shaped white object  traveling south to north east of Barnsdall&#44 Ok .  Probably summer 1980,2/18/2001,36.5619444,-96.1613889
6/15/1980 23:59,caribbean sea (uss w.s. sims),,,,1209600,2 weeks,U.S. Navy destroyer escort dispatched to Puerto Rico to observe unknown underwater contact which remained undetermined.,9/4/2003,14.540111,-74.967637
6/20/1980 20:00,bridgeton,nj,us,circle,240,3 to 4 min,The UFO flew directly over our heads at roof top level&#44speed approx 5 mi per hr. emitted no sound.with non flashing multi colored light,4/27/2004,39.4272222,-75.2344444
6/23/1980 20:00,philadelphia,pa,us,sphere,60,1 minute,Low flying craft that defies explanation.,2/14/2006,39.9522222,-75.1641667
6/24/1980 14:00,mount weather (near leesburg),va,,unknown,18000,possibly 5 hours,Missing Time: Two People,5/15/2006,39.063876,-77.891998
6/25/1980 10:00,cave junction (outside of),or,us,unknown,300,5 minutes,Men In Black Encounter in Oregon,2/14/2008,42.1630556,-123.6469444
6/26/1980 19:00,parma,id,us,unknown,1,00:01,Bright Flash- Pregnant wife getting up off of ground&#44 30 feet away.,2/16/2000,43.7852778,-116.9422222
6/30/1980 00:00,clinton,mo,us,rectangle,2400,30 40 minutes,Repeated Encounter in about 1980,3/31/2008,38.3686111,-93.7780556
6/30/1980 19:00,south lake tahoe,ca,us,light,300,5 minutes,Hi there&#44 well this happen a long time ago however lives with me and even i have 4 witness I know there are much more I will explain .,11/11/2013,38.9333333,-119.9833333
6/30/1980 21:30,tampa,fl,us,circle,120,2 minutes,MISSOURI INVESTIGATORS GROUP Report:  I seen a pancake shaped object with rectangler size windows all around it with  lights.,12/12/2009,27.9472222,-82.4586111
6/30/1980 22:00,athens,tx,us,light,30,30 seconds,I saw light moving&#44 in my experience in an inexplicable manner&#44 then at incredible speed disappearing into the sky at  near verticle.,3/13/2012,32.2047222,-95.8552778
7/1/1980 00:00,parm,oh,,sphere,5,1/2 hour,A glowing red ball suddenly appeared in the sky&#44 like a red sun without the halo.  It moved a perfect right angles&#44 straight line fligh,7/3/2013,41.404774,-81.722909
7/1/1980 00:00,del mar,ca,us,unknown,5,5 sec,No craft&#44 just a person. 3-4 feet tall. Blue&#44 large eyes and smirking.,11/19/1998,32.9594444,-117.2644444
7/1/1980 01:00,caldwell,wi,us,triangle,6,6 secs,Three unlit triange shapes moving slowly in formation 500ft above with little sound,9/2/2005,42.8352778,-88.2763889
7/1/1980 21:00,black earth,wi,us,oval,90,1.5 minutes,Bright&#44 orange&#44 silent oval that looked like a lower-case &quot;e&quot; moving slowly across the sky.,6/6/2000,43.1372222,-89.7466667
7/1/1980 21:30,plainfield,ct,us,circle,15,10-15 seconds,Circular UFO with lights around outer edge in night sky,5/2/2014,41.6763889,-71.9155556
7/1/1980 22:00,netherlands,,,unknown,120,2 minutes,Big black object with coloured lights,12/2/2000,52.132633,5.291266
7/1/1980 22:30,gravenhurst (canada),on,ca,circle,60,1 minute,Round fire ball just over the top of the treeline.,1/16/2014,44.916667,-79.366667
7/4/1980 21:00,rapid city,mi,us,triangle,600,10 minutes,three greenish lights in triangle 30+ witnesses,10/10/2011,44.8344444,-85.2825
7/4/1980 22:00,st. paul,mn,us,oval,1800,30 minutes,Fireworks and UFO&#44 MN State Fair Grounds July 4th late 70&#39s early 80&#39s.,12/12/2009,44.9444444,-93.0930556
7/6/1980 21:00,forest park,ga,us,disk,30,30 seconds,very close encounter,2/14/2010,33.6219444,-84.3691667
7/7/1980 08:30,hudson,ma,us,unknown,120,two minutes,Back in the summer of 1980 I was dating a girl in Hudson MA.  She was taking a long time getting ready to go out for the evening so I w,10/30/2006,42.3916667,-71.5666667
7/8/1980 02:00,louisville,ky,us,cigar,2400,40 minutes,Definitely followed my car over 20 miles and shone lights&#44 went way below the second loop of power line noiselessly,12/14/2004,38.2541667,-85.7594444
7/8/1980 04:00,louisville,ky,us,cigar,1800,30 minutes,DEFINITELY NOT FROM AROUND HERE&#33,5/24/2005,38.2541667,-85.7594444
7/10/1980 14:30,brookwood (uk/england),,gb,egg,60,1 minute,Silent silver egg shaped object flying slowly at around 500-1000&#39 in the UK.,12/20/2012,51.3,-0.633333
7/10/1980 15:00,town of preble,ny,,light,5,3 to 5 seconds,Brilliant object  moving at right angles at high speed from the ground&#44 instant acceleration&#33,6/4/2004,42.735278,-76.148333
7/10/1980 21:00,norwalk,ct,us,oval,15,10-15 seconds,multi colored lights over some trees near downtown norwalk ct.,3/19/2009,41.1175000,-73.4083333
7/10/1980 22:00,knife river,mn,us,,4,4 seconds,Day light at night,3/19/2009,46.9494444,-91.7788889
7/11/1980 11:00,san andreas,ca,us,unknown,7200,1.5 to 2 hrs,Lost time very strange.Sense of everything was O.K.,6/18/2004,38.1961111,-120.6794444
7/13/1980 23:59,hardwick,vt,us,cylinder,40,half hour,The craft passed over us very slowly making no sound about 30 ft above the car we sat in.,2/1/2007,44.5047222,-72.3686111
7/14/1980 23:00,hamburg,ny,us,triangle,10800,3 hours,Triangular UFO sends probes into Lake Erie,1/11/2005,42.7158333,-78.8297222
7/15/1980 02:00,moline,il,us,disk,600,ten minutes,The object moved up and down and in a zig-zag formation and was round.,9/29/2004,41.5066667,-90.515
7/15/1980 06:00,miami,fl,us,triangle,60,a minute or two,Certain things happen to you in your life that you never forget and this is why you know they are real the rest of your life.,2/14/2008,25.7738889,-80.1938889
7/15/1980 08:30,buffalo,ny,us,oval,600,10minutes,I will never forget the summer of 1980. I was in my back yard with my parents. Our neighbors were there too. We noticed a oval shaped o,8/5/2001,42.8863889,-78.8786111
7/15/1980 21:00,conroe,tx,us,light,14400,3 to 4 hours,A speeding craft and several lost hours,9/6/2002,30.3116667,-95.4558333
7/15/1980 21:00,valencia,ca,us,disk,40,40 sec.,Although this sighting occurred 22 years ago&#44 it is an experience my wife and I cannot forget and considerably a closer experience that,3/19/2002,34.4436111,-118.6086111
7/15/1980 22:00,omaha,ne,us,oval,2,2 second,Very fast moving object&#33&#33&#33&#33&#33&#33&#33&#33,8/14/2007,41.2586111,-95.9375
7/15/1980 23:00,salt lake city,ut,us,light,30,30 seconds,Bright starlike object over oil refinery in SLC zig zag over mountainside &amp; went straight up at high speed,1/11/2002,40.7608333,-111.8902778
7/16/1980 10:00,fleetville,pa,us,disk,120,2 min,seeing this hovering there with no sound and moving away so quickly,12/3/2004,41.5980556,-75.715
7/16/1980 13:40,seattle,wa,us,cylinder,180,3 minutes,Cylinder UFO Sighted in Seattle&#44 Washington,8/12/2008,47.6063889,-122.3308333
7/17/1980 22:10,north platte,ne,us,formation,8,6 to 8 seconds,Massive Pitch Black boulder shaped and jagged edges totally silent zoomed over my window of view at thirty to forthy thousand ft.,10/8/2007,41.1238889,-100.765
7/20/1980 21:00,cleveland,oh,us,oval,240,4.00 min.,Oval aircraft with red and yellow lights,11/21/2010,41.4994444,-81.6955556
7/21/1980 14:00,exeter,ca,us,cigar,180,3 min.,I had gone outside to get the mail. when walking back to the house&#44 something caused me to look above the roof where I saw what i thoug,4/16/2005,36.2961111,-119.1411111
7/21/1980 22:00,exeter,ca,us,cigar,180,hours,I WAS THER 7/21/80  IN EXETER,2/1/2007,36.2961111,-119.1411111
7/22/1980 23:00,pecos,nm,us,triangle,30,approx 30 seconds,two florescent triangles&#44 huge,4/16/2005,35.5741667,-105.6744444
7/29/1980 23:15,gresham,or,us,sphere,5,5 secsonds,White orb like object heading west towards portland from gresham,7/5/2008,45.4983333,-122.4302778
7/30/1980 20:30,henrietta  (suburb of rochester ),ny,us,other,10,10 seconds,It was a long time ago&#44 but the memmory is still clear. My brother and I were star gazing and saw what appeared to be a LARGE vehicle t,2/16/2000,43.0591667,-77.6125
7/30/1980 22:00,clinton,me,us,oval,1800,30 minutes,Luminous&#44 oval ring of light,12/16/2005,44.6377778,-69.5036111
8/1/1980 08:00,san antonio,tx,us,disk,120,two minutes,I was coming home from the store.  It was dark and I had parked along way from my apartment.  As I was walking towards the apartment I,9/2/2005,29.4238889,-98.4933333
8/1/1980 15:00,ormstown (canada),qc,ca,triangle,120,2 minutes,Though this happened many years ago&#44 the incident left a lasting impression. I was sitting at my kitchen table around 3:00pm on a s,3/11/2006,45.133333,-74.0
8/1/1980 20:00,kendall (s. miami),fl,us,cigar,300,5 minutes,Fleet of silver-ish cigar shaped objects&#44 one appearing after another and then disappearing.,9/15/2005,25.6788889,-80.3175
8/1/1980 23:00,barrington,il,us,triangle,5,5 seconds,Triangle hovering over me then moved across sky,11/21/2010,42.1538889,-88.1361111
8/1/1980 23:30,bremham,tx,,chevron,1200,15-20 min,observed a very long craft with a cheveron front. Front of object had several dim lights&#44 craft very large&#44 moving slowly over pasture,10/2/1999,30.166883,-96.397744
8/5/1980 21:00,maricopa,az,us,other,1200.0,20 minutes,August 1980 HUGE&#44 silent&#44 boomerang craft in rural desert area south of Phoenix.,4/27/2004,33.0580556,-112.0469444
8/5/1980 23:15,glennallen,ak,us,rectangle,1500.0,25 minutes,Unidentified Bright Light Sitting On Road,10/15/2002,62.1091667,-145.5463889
8/7/1980 01:00,tillamook,or,us,rectangle,120.0,2 minutes,It was big as a football feild with lit up windows&#44 i could see movement inside&#44 it was so low &amp; slow i could see alot of detail.,2/5/2003,45.4563889,-123.8427778
8/8/1980 20:00,tullahoma,tn,us,light,1260.0,coupla minutes,Lights forming a triangle in the sky,10/11/2005,35.3619444,-86.2094444
8/10/1980 02:30,edmonton (canada),ab,ca,light,300,5 minutes,Object seen manuvering around the area of Namaeo Airforce base from the vehicle I was a  a passenger in. Estimated range was about 5 ki,5/24/2005,53.55,-113.5
8/12/1980 19:00,honolulu,hi,us,rectangle,300,5 min,Saw large bus like vehicle,1/28/1999,21.3069444,-157.8583333
8/12/1980 22:00,bandon,or,us,disk,8,4-8 seconds,Father &amp; son saw big glowing white disk approach thru clouds from S&#44 depart thru clear sky to SW.,8/5/2001,43.1191667,-124.4072222
8/15/1980 17:30,arthur,ne,us,light,900.0,15 min.,arthur nebr lights&#33&#33&#33&#33&#33&#33,2/18/2001,41.5716667,-101.6911111
8/15/1980 20:00,bend,or,us,unknown,600.0,10 minutes,Bright round object seen at night&#44 shot upward at a 45% angle&#44 then got dimmer and dimmer until it faded away.,6/12/2008,44.0583333,-121.3141667
8/15/1980 20:00,bricktown,nj,us,formation,1200.0,20 minutes,Formation observed flying over Lakehurst Naval Air Warfare Station&#44 Lakehurst&#44 New Jersey,5/15/2006,40.0591667,-74.1375
8/15/1980 20:30,apollo,pa,us,sphere,900.0,15 minutes,2 objects&#44 one spherical and huge&#44 the other even larger followed after only a moment or so. Second object appeared to be very high and,2/16/2000,40.5813889,-79.5666667
8/15/1980 23:00,glenndale,md,,circle,600.0,7-10 minutes,Was 18 at the time&#44 snuck on golf course to go bass fishing at night on course pond. While approx. 300 yds from pond.,8/30/2013,38.98761,-76.820527
8/15/1980 23:30,detroit,mi,us,disk,600.0,10 min,Disc sighting in Detroit,2/14/2008,42.3313889,-83.0458333
8/16/1980 23:30,pine springs,tx,us,light,180.0,2 to 3 minutes,A Falling Star That Changed its Mind because it went back UP&#33,6/18/2004,33.6211111,-94.7436111
8/18/1980 21:30,clarksfield,oh,us,cigar,240.0,4 minutes,Let me start by saying this event happened years ago but a friend just told me about your web sight. I was fishing with three friends a,12/19/2003,41.195,-82.4116667
8/20/1980 01:00,edwards,ny,us,chevron,1800.0,30 min,That is what struck me as weird and there was no engine noise.,3/4/2008,44.3244444,-75.2513889
8/20/1980 21:00,gifford pinchot national forrest,wa,,disk,180.0,two or three minutes,White Saucer in the Gifford Pinchot National Forrest,8/11/2004,46.758168,-121.451198
8/22/1980 18:00,kent,wa,us,teardrop,90.0,90 seconds,August&#44 6 p.m.&#44 clear day&#44 UFO at 1000 ft altitude&#44 airspeed approx. 150 knots&#44 circular&#44 no sound&#44 black color.&#44 six witnesses.&#44,5/15/2006,47.3811111,-122.2336111
8/30/1980 16:00,rush city,mn,us,unknown,1800.0,30 minutes,Space suit looking things and object in the woods,8/16/2002,45.6855556,-92.9652778
8/30/1980 20:00,maquoketa,ia,us,unknown,1200.0,20 minutes,OBJECT APPEREAD WAS DIM GOT BRIGHT WENT EAST REAPPERED SAME SPOT REPEATED SAME THING,12/3/2004,42.0688889,-90.6655556
8/30/1980 20:00,llandudno (uk/wales),ns,gb,circle,900.0,15 minutes,there were lights on the object,7/11/2000,53.333333,-3.833333
9/1/1980 17:00,concordia,mo,us,sphere,3.0,3 seconds,Ball of light in Concordia&#44 MO- 1980,7/4/2012,38.9833333,-93.5683333
9/1/1980 20:15,hansville,wa,us,disk,1200.0,20min,Spotted glowing disks off to east over Mukelto area.  They were pulsating. Suddenly flashed&#44 blinked&#44 rose straight up &amp; half of them f,4/26/2000,47.9188889,-122.5530556
9/3/1980 21:25,kansas city,mo,us,sphere,60.0,1 minute,Summer of 1980...First and thankfully last encounter. Kansas City&#44 Missouri,9/24/2003,39.0997222,-94.5783333
9/4/1980 17:30,orlando (south-southeast),fl,us,rectangle,15.0,10-15 sec.,Saw a multi-colored&#44 rectangular object flying through the sky from the NE to the SW...,2/27/2000,28.5380556,-81.3794444
9/5/1980 17:00,morgan hill,ca,us,disk,900.0,fifteen minutes,ufo sighting in small town on the busiess holiday weekend.,11/21/2010,37.1305556,-121.6533333
9/9/1980 20:30,brick,nj,,changing,600.0,10 minutes,Five spheres witnessed in the evening sky in Brick&#44 New Jersey.,3/9/2004,40.057838,-74.137183
9/11/1980 23:59,uk/england,,,,28800.0,8 hours,the sightings that are beeing reported today&#44 I and my workmates saw back in november 1980. we saw one main sphere and others coming to,4/13/2010,52.355518,-1.17432
9/12/1980 21:00,atlantic ocean,nc,,light,60.0,one minute,Flying light flew across sky&#44 stopped&#44 zig zagged&#44 turned red&#44 then flew back up and disapeared.,12/12/2009,36.11821,-75.722051
9/14/1980 19:00,todmorden (uk/england),,gb,other,36.0,3/5 mins,1 craft was seen at close range no more than 30 feet away looked like a hovercraft with a bank of dark black windows dull silver in col,12/2/2000,53.716667,-2.083333
9/15/1980 00:30,maynardville,tn,us,light,120.0,few minutes,A late night viewing of a bright&#44 white light during a camping trip leads to an unusual physical manifestation.,1/11/2002,36.2505556,-83.7975
9/15/1980 01:30,royal oak,mi,us,disk,1200.0,20mts,after leaving work at (15 mile and Crooks Rd)about 12:30am I travaled south on Crooks Rd for about 15 mts stopping for a red light at C,9/2/2005,42.4894444,-83.1447222
9/15/1980 21:00,southwest harbor,me,us,light,300.0,5 mins,Large round white light,12/19/2003,44.2797222,-68.3255556
9/15/1980 22:00,dam b lake (just north of; ntersection of angelina river),tx,,light,1800.0,30 minutes,Two slow moving luminous flying craft observed along a high power transmission line in East TX.,1/28/1999,30.070207,-99.254567
9/15/1980 22:00,elko,nv,us,light,15300.0,15 mins to 4 hrs,Spotted aluminum-colored square- shaped blinking lights which disappeared&#44 car stopped &amp; red/orange ball followed us.,12/19/2003,40.8325,-115.7622222
9/15/1980 22:00,tekamah,ne,us,unknown,480.0,5 -8 min,Standard running light&#44 hovers&#44 flies slow&#44 climbs fast and absolutely no sound and no jet engines flames.,8/24/2010,41.7783333,-96.2208333
9/15/1980 22:00,black creek community,ga,,oval,240.0,3 or 4 min.,Large&#44oval &#44 bright orange object descending into woods.,8/5/2001,35.070817,-85.317615
9/15/1980 23:00,bridgeport,ct,us,triangle,300.0,5 minutes,I was sitting on my front porch and noticed a bright light in the distance over the trees. I mentioned it to my fiance and he said it w,1/19/2005,41.1669444,-73.2052778
9/16/1980 23:00,clinton township,mi,,oval,1200.0,20 min,Circular shaped craft with flashing lights,1/10/2009,42.586888,-82.919551
9/20/1980 20:30,louisville,ky,us,circle,900.0,15 min,I did not know how to report so i found this sight i am now 52 and most passegers are in there 68 -70.,2/14/2010,38.2541667,-85.7594444
9/20/1980 22:00,samsonville,ny,us,disk,25200.0,7 hours,25 foot craft hovering above my house.,9/2/2005,41.8875,-74.2944444
9/24/1980 23:59,savannah/register (between),ga,,triangle,300.0,5 min.,very low &#44 triangle shaped craft&#44 with no sound,8/5/2001,32.003889,-81.115447
9/27/1980 21:00,st. paul,mn,us,light,7200.0,2 hrs,ufo encounter with missing time,4/28/2001,44.9444444,-93.0930556
10/1/1980 01:30,fremont,ca,us,other,30,30 seconds,A heavy rain night off work and was amazed how heavy it was raining&#44 awake and looking out thru my skylight. Suddenly bright overwhelmi,8/5/2001,37.5483333,-121.9875
10/1/1980 20:00,mountainboro,al,us,fireball,20,20 seconds,Ball of Fire that changed into a cone shape.,7/4/2012,34.1469444,-86.1305556
10/1/1980 21:00,shirleysburg,pa,us,formation,600,10 minutes,Sometime during the late 1970-s and early 1980&#8217;s&#44 I can&#8217;t remember the time of the year.   I was in my home in rural Shirleysburg&#44 PA.,5/13/2012,40.2977778,-77.8744444
10/1/1980 22:00,jersey city,nj,us,cigar,180,2-3 minutes,Blimp shaped object with extremely bright lights hovered then rapidly dashed into the night&#39s sky.,10/20/2005,40.7280556,-74.0780556
10/2/1980 21:30,irvine,ca,us,sphere,900,15 minutes,Dot of light making imposable turn,7/4/2012,33.6694444,-117.8222222
10/3/1980 18:00,richardson,tx,us,diamond,600,10 min,My date&#44 Sam&#44 and me were lying on a blanket discussing outer space and how we would get to other planets.  We were doing some serious,1/28/1999,32.9480556,-96.7294444
10/5/1980 21:00,allenspark,co,us,light,5,5 seconds,Bright white light moves in U-pattern then fades out.,11/11/2013,40.1944444,-105.525
10/9/1980 06:45,wind lake,wi,us,disk,1800,30 minutes,Disk hovering over field,10/27/2004,42.8294444,-88.1586111
10/10/1980 19:00,houston,tx,us,sphere,180,3 min,Sphere&#44 No lights&#44  moving through neighborhoods above tree tops&#44 over busy streets in Houston in 1980.,4/16/2005,29.7630556,-95.3630556
10/10/1980 22:00,dallas,tx,us,unknown,300,5 minutes,Strange shape shifting craft of pure light energy.,10/28/2002,32.7833333,-96.8
10/10/1980 23:30,manchester,nh,us,light,300,3 to 5 min,A red glowing sphere stopped and watched me.,11/21/2010,42.9955556,-71.4552778
10/15/1980 02:30,columbus,oh,us,fireball,900,10 - 15 minutes,12-15 white fireballs traveling north to south ashing off as they flew by&#44 the episode lasted 10-15 minutes over rural Columbus&#44 OH.,1/22/2004,39.9611111,-82.9988889
10/15/1980 03:00,guntersville,al,us,triangle,10,10 seconds,The date and time is not exact.  I was the shift supervisor at a chemical plant located on the banks of the Tennessee River.  Mountains,8/27/2009,34.3580556,-86.2947222
10/15/1980 14:00,sandy,ut,,sphere,60,1min.,Unidentified flying objects Investigations,11/21/2010,40.5725,-111.859722
10/15/1980 19:00,national forest,co,,cylinder,120,2 minutes,A green pencil-like object appeared from behind one hill only to disappear behind another. From - Fri Aug 21 11:38:01 1998 Received: fr,1/28/1999,38.145876,-104.980582
10/15/1980 19:00,denham springs,la,us,rectangle,360,6 minutes,Flying object observed,9/24/2012,30.4866667,-90.9561111
10/15/1980 19:00,avon,ct,us,disk,60,1 minute,A huge lit-up craft various colors of lights at tree top level traveling at a very slow speed (10 mph) over our heads .,3/21/2003,41.8097222,-72.8311111
10/15/1980 20:00,boonville,ca,us,sphere,300,5 minutes,digital rendering of sighting linked to 10/1980 &quot;Boonville&#44 Ca. 10/1980: just after dark&#44 two orange glowing spheres&#44 200 feet from gro,9/2/2005,39.0091667,-123.365
10/15/1980 23:00,jonesport,me,us,oval,300,hour or two,green gas sorta cloud very slow south to movement started from horison not much to say about it but it was witness at the same time by,9/13/2002,44.5327778,-67.5988889
10/15/1980 23:59,boonville,ca,us,sphere,300,5 minutes,Boonville&#44 Ca.  10/1980:  just after dark&#44 two orange glowing spheres&#44 200 feet from ground&#44  15 ft diam.&#44 40 ft apart&#44 10 mph,2/18/2001,39.0091667,-123.365
10/19/1980 01:00,bald knob,ar,us,triangle,600,10 min,ORANGE TRIANGULAR CRAFT&#44NO NOISE,11/21/2010,35.3097222,-91.5677778
10/20/1980 18:00,corpus christi (maliki beach),tx,us,disk,300,5min,METALIC RED PORTHOLES HOVERED OFFSHORE AT DUSK SLOWLY DRIFTED SOUTH INTO CLOUDS,8/30/1999,27.8002778,-97.3961111
10/20/1980 19:00,dallas,tx,us,triangle,2700,30-45 min,We were in a boat fishing at Lake Ray Hubbard&#44 heading toward north end of lake. We noticed an object hovering just above a water tower,4/27/2004,32.7833333,-96.8
10/29/1980 20:00,detroit,mi,us,rectangle,30,30 seconds,Triangle shape object with flashings lights,2/7/2014,42.3313889,-83.0458333
11/1/1980 00:00,rochester,in,us,oval,7200,2 hours,Two objects seen one at close range in November of 1980,1/12/2012,41.0647222,-86.2158333
11/10/1980 20:00,lansing,mi,us,rectangle,15,15 secs,object had sections like a large tootsie roll only more squared&#44 no lights or noise&#44lit by city lights moved smoothly in straight line,4/2/1999,42.7325000,-84.5555556
11/15/1980 22:00,lampasas,tx,us,light,10,10 seconds,Very bright&#44 fast moving light which appeared to circle the local radio tower and speed away,4/2/1999,31.0636111,-98.1813889
11/21/1980 00:00,clarksburg,wv,us,oval,5400,90 minutes,tHE OBJECT MOVED FROM SIDE TO SIDE AND UP AND DOWN AND WAS GONE IN A FLASH,2/14/2008,39.2805556,-80.3447222
11/22/1980 11:00,alloy,wv,us,disk,10,10 seconds total,Saucer seen briefly over road - may have landed,6/4/2004,38.1375000,-81.2744444
12/1/1980 21:00,newport news,va,us,disk,60,1 minute,I could see directly into the craft because lights were ON inside.,6/12/2008,36.9786111,-76.4283333
12/1/1980 21:00,franklin (5 miles south of),tn,us,rectangle,180,3 minutes,Close encounter/Franklin Tn.,8/5/2001,35.9250000,-86.8688889
12/1/1980 22:00,winfield,ks,us,light,30,30 seconds,A brief and disturbing encounter on the way to town some years ago.,11/2/1999,37.2397222,-96.9952778
12/9/1980 23:59,santa monica,ca,us,disk,600,10 min.,It said U.s. and eighter Air For or something official. It was official looking nontheless.,11/19/1998,34.0194444,-118.4902778
12/10/1980 00:00,newport news,va,us,other,60,1 minute,Hexagon shape ufo&#39s,4/16/2005,36.9786111,-76.4283333
12/10/1980 21:00,weyerhaeuser,wi,us,disk,900,15 min,one UFO meets 2 others,11/26/2003,45.4236111,-91.4083333
12/11/1980 23:45,birmingham (uk/england),,gb,other,300,5 minuites,a huge roaring sound of some kind of animal sounding much bigger than a lion ..,9/2/2005,52.466667,-1.916667
12/20/1980 19:00,decatur,il,us,unknown,60,1 minute,During a raging snowstorm&#44 I saw a dark object flying at about 5 MPH in the middle of the road between the trees&#44 using a bright search,12/9/2003,39.8402778,-88.9547222
12/20/1980 23:00,mexico city (mexico),,,disk,30,30 seconds,clearly a flying suacer&#44 solid&#44 bright&#44 silent &#44 hovering at the top corner of a high rise building then flying away in an instant.,6/12/2008,19.432608,-99.133208
12/23/1980 00:00,cairns (qld&#44 australia),,au,disk,600,10mins,I remember it was close to Christmas and I had preyed to God for months and months every night to please do something about my abusive,12/2/2000,-16.92304,145.766251
12/27/1980 01:00,raf bentwaters (uk/england),,,rectangle,7200,2 hours,Additional information (eyewitness account) of the Bentwaters Incident,10/31/2003,52.12785,1.435047
12/30/1980 23:30,chicopee,ma,us,diamond,300,5 minutes,Black diamond with green lights lands on porch roof,10/31/2003,42.1486111,-72.6083333
